{
   "HEA": {
      "Name": "Herat",
      "TotalSeats": 22041.971,
      "Country Name": "Afghanistan",
      "Latitude": 34.20690155,
      "Longitude": 62.22669983
   },
   "JAA": {
      "Name": "Jalalabad",
      "TotalSeats": 6343.512,
      "Country Name": "Afghanistan",
      "Latitude": 34.40000153,
      "Longitude": 70.5
   },
   "KBL": {
      "Name": "Kabul International",
      "TotalSeats": 1016196.825,
      "Country Name": "Afghanistan",
      "Latitude": 34.56389999,
      "Longitude": 69.21389771
   },
   "KDH": {
      "Name": "Kandahar International",
      "TotalSeats": 39924.262,
      "Country Name": "Afghanistan",
      "Latitude": 31.50690079,
      "Longitude": 65.84750366
   },
   "MZR": {
      "Name": "Mazar-e-Sharif",
      "TotalSeats": 58326.513,
      "Country Name": "Afghanistan",
      "Latitude": 36.70420075,
      "Longitude": 67.20829773
   },
   "OAI": {
      "Name": "Bagram Airport",
      "TotalSeats": 18016.614,
      "Country Name": "Afghanistan",
      "Latitude": 34.94639969,
      "Longitude": 69.26499939
   },
   "OAZ": {
      "Name": "Camp Bastion",
      "TotalSeats": 14467.887,
      "Country Name": "Afghanistan",
      "Latitude": 31.85499954,
      "Longitude": 64.21219635
   },
   "TIA": {
      "Name": "Rinas",
      "TotalSeats": 2063322.604,
      "Country Name": "Albania",
      "Latitude": 41.41690064,
      "Longitude": 19.7166996
   },
   "AAE": {
      "Name": "Rabah Bitat",
      "TotalSeats": 135934.876,
      "Country Name": "Algeria",
      "Latitude": 36.82220078,
      "Longitude": 7.809400082
   },
   "ALG": {
      "Name": "Houari Boumediene",
      "TotalSeats": 3904925.598,
      "Country Name": "Algeria",
      "Latitude": 36.69329834,
      "Longitude": 3.217200041
   },
   "BJA": {
      "Name": "Bejaia Airport",
      "TotalSeats": 140844.165,
      "Country Name": "Algeria",
      "Latitude": 36.75,
      "Longitude": 5.083300114
   },
   "BLJ": {
      "Name": "Mostepha Ben Boulaid Airport",
      "TotalSeats": 29451.401,
      "Country Name": "Algeria",
      "Latitude": 35.54779816,
      "Longitude": 6.159999847
   },
   "BSK": {
      "Name": "Mohamed Khider Airport",
      "TotalSeats": 24139.143,
      "Country Name": "Algeria",
      "Latitude": 34.79330063,
      "Longitude": 5.738100052
   },
   "CFK": {
      "Name": "AbouBakr Belkaid",
      "TotalSeats": 32540.83,
      "Country Name": "Algeria",
      "Latitude": 36.21279907,
      "Longitude": 1.331699967
   },
   "CZL": {
      "Name": "Mohamed Boudiaf",
      "TotalSeats": 373890.237,
      "Country Name": "Algeria",
      "Latitude": 36.27690125,
      "Longitude": 6.630000114
   },
   "DJG": {
      "Name": "Tiska",
      "TotalSeats": 4701.305,
      "Country Name": "Algeria",
      "Latitude": 24.46529961,
      "Longitude": 9.488900185
   },
   "ELU": {
      "Name": "Guemar",
      "TotalSeats": 5602.569,
      "Country Name": "Algeria",
      "Latitude": 33.51670075,
      "Longitude": 6.783299923
   },
   "GHA": {
      "Name": "Noumerat",
      "TotalSeats": 4194.344,
      "Country Name": "Algeria",
      "Latitude": 32.38219833,
      "Longitude": 3.800600052
   },
   "GJL": {
      "Name": "Ferhat Abbas",
      "TotalSeats": 1923.852,
      "Country Name": "Algeria",
      "Latitude": 36.79999924,
      "Longitude": 5.883299828
   },
   "HME": {
      "Name": "Oued Irara",
      "TotalSeats": 4610.312,
      "Country Name": "Algeria",
      "Latitude": 31.6739006,
      "Longitude": 6.142799854
   },
   "OGX": {
      "Name": "Ain Beida Airport",
      "TotalSeats": 20746.404,
      "Country Name": "Algeria",
      "Latitude": 31.91670036,
      "Longitude": 5.400000095
   },
   "ORN": {
      "Name": "Ahmed Ben Bella",
      "TotalSeats": 876565.9,
      "Country Name": "Algeria",
      "Latitude": 35.62779999,
      "Longitude": -0.610599995
   },
   "QSF": {
      "Name": "Setif",
      "TotalSeats": 138053.713,
      "Country Name": "Algeria",
      "Latitude": 36.18330002,
      "Longitude": 5.333300114
   },
   "TIN": {
      "Name": "Tindouf",
      "TotalSeats": 649.95,
      "Country Name": "Algeria",
      "Latitude": 27.7166996,
      "Longitude": -8.166700363
   },
   "TLM": {
      "Name": "Zenata",
      "TotalSeats": 97054.867,
      "Country Name": "Algeria",
      "Latitude": 35.0155983,
      "Longitude": -1.458299995
   },
   "TMR": {
      "Name": "Aguenar",
      "TotalSeats": 1087.583,
      "Country Name": "Algeria",
      "Latitude": 22.81469917,
      "Longitude": 5.459199905
   },
   "CAB": {
      "Name": "Cabinda",
      "TotalSeats": 233.982,
      "Country Name": "Angola",
      "Latitude": -5.583300114,
      "Longitude": 12.19999981
   },
   "LAD": {
      "Name": "4 De Fevereiro",
      "TotalSeats": 1227092.601,
      "Country Name": "Angola",
      "Latitude": -8.853099823,
      "Longitude": 13.2361002
   },
   "SDD": {
      "Name": "Mukanka",
      "TotalSeats": 6239.52,
      "Country Name": "Angola",
      "Latitude": -14.92440033,
      "Longitude": 13.57670021
   },
   "VPE": {
      "Name": "Ondjiva",
      "TotalSeats": 1949.85,
      "Country Name": "Angola",
      "Latitude": -17.04999924,
      "Longitude": 15.69999981
   },
   "AXA": {
      "Name": "Clayton J. Lloyd International",
      "TotalSeats": 28511.14,
      "Country Name": "Anguilla",
      "Latitude": 18.21030045,
      "Longitude": -63.05749893
   },
   "ANU": {
      "Name": "V C Bird Intl",
      "TotalSeats": 630334.509,
      "Country Name": "Antigua and Barbuda",
      "Latitude": 17.13750076,
      "Longitude": -61.79000092
   },
   "BBQ": {
      "Name": "Codrington Airport",
      "TotalSeats": 1152.578,
      "Country Name": "Antigua and Barbuda",
      "Latitude": 17.55559921,
      "Longitude": -61.76499939
   },
   "AEP": {
      "Name": "Jorge Newbery",
      "TotalSeats": 507051.993,
      "Country Name": "Argentina",
      "Latitude": -34.55889893,
      "Longitude": -58.41579819
   },
   "BHI": {
      "Name": "Comandante Espora",
      "TotalSeats": 73.661,
      "Country Name": "Argentina",
      "Latitude": -38.73059845,
      "Longitude": -62.15060043
   },
   "BRC": {
      "Name": "San Carlos Bariloche Airport",
      "TotalSeats": 21214.368,
      "Country Name": "Argentina",
      "Latitude": -41.14970017,
      "Longitude": -71.15830231
   },
   "CNQ": {
      "Name": "Corrientes",
      "TotalSeats": 1733.2,
      "Country Name": "Argentina",
      "Latitude": -27.4496994,
      "Longitude": -58.7621994
   },
   "COR": {
      "Name": "Pajas Blancas",
      "TotalSeats": 493368.379,
      "Country Name": "Argentina",
      "Latitude": -31.31310082,
      "Longitude": -64.19940186
   },
   "CPC": {
      "Name": "Aviador Carlos Campos",
      "TotalSeats": 129.99,
      "Country Name": "Argentina",
      "Latitude": -40.07580185,
      "Longitude": -71.1391983
   },
   "CRD": {
      "Name": "General E. Mosconi",
      "TotalSeats": 3535.728,
      "Country Name": "Argentina",
      "Latitude": -45.78720093,
      "Longitude": -67.46279907
   },
   "EPA": {
      "Name": "El Palomar Airport",
      "TotalSeats": 102024.818,
      "Country Name": "Argentina",
      "Latitude": -34.60829926,
      "Longitude": -58.61249924
   },
   "EZE": {
      "Name": "Ministro Pistarini",
      "TotalSeats": 7334655.419,
      "Country Name": "Argentina",
      "Latitude": -34.8199997,
      "Longitude": -58.53390122
   },
   "FTE": {
      "Name": "Comandante A. Tola",
      "TotalSeats": 363.972,
      "Country Name": "Argentina",
      "Latitude": -50.28030014,
      "Longitude": -72.05329895
   },
   "IGR": {
      "Name": "Cataratas Del Iguazu",
      "TotalSeats": 10234.546,
      "Country Name": "Argentina",
      "Latitude": -25.74169922,
      "Longitude": -54.46580124
   },
   "JUJ": {
      "Name": "Gobernador H. Guzman",
      "TotalSeats": 3457.734,
      "Country Name": "Argentina",
      "Latitude": -24.38500023,
      "Longitude": -65.09739685
   },
   "LGS": {
      "Name": "Comodoro D.R. Salomon",
      "TotalSeats": 1299.9,
      "Country Name": "Argentina",
      "Latitude": -35.46670151,
      "Longitude": -69.57420349
   },
   "LPG": {
      "Name": "La Plata",
      "TotalSeats": 1949.85,
      "Country Name": "Argentina",
      "Latitude": -34.91669846,
      "Longitude": -57.95000076
   },
   "MDZ": {
      "Name": "El Plumerillo",
      "TotalSeats": 295215.956,
      "Country Name": "Argentina",
      "Latitude": -32.83190155,
      "Longitude": -68.78469849
   },
   "NQN": {
      "Name": "Presidente Peron",
      "TotalSeats": 20356.434,
      "Country Name": "Argentina",
      "Latitude": -38.95000076,
      "Longitude": -68.15219879
   },
   "PMY": {
      "Name": "El Tehuelche Airport",
      "TotalSeats": 4714.304,
      "Country Name": "Argentina",
      "Latitude": -42.75899887,
      "Longitude": -65.10099793
   },
   "REL": {
      "Name": "Almirante M.A. Zar",
      "TotalSeats": 3119.76,
      "Country Name": "Argentina",
      "Latitude": -43.23329926,
      "Longitude": -65.32330322
   },
   "RES": {
      "Name": "Resistencia",
      "TotalSeats": 15520.806,
      "Country Name": "Argentina",
      "Latitude": -27.45140076,
      "Longitude": -59.05080032
   },
   "RGL": {
      "Name": "Piloto N. Fernandez",
      "TotalSeats": 4774.966,
      "Country Name": "Argentina",
      "Latitude": -51.60919952,
      "Longitude": -69.33920288
   },
   "ROS": {
      "Name": "Islas Malvinas",
      "TotalSeats": 216593.671,
      "Country Name": "Argentina",
      "Latitude": -32.9056015,
      "Longitude": -60.7867012
   },
   "SLA": {
      "Name": "Martin M. de Guemes",
      "TotalSeats": 56710.304,
      "Country Name": "Argentina",
      "Latitude": -24.85499954,
      "Longitude": -65.47219849
   },
   "TUC": {
      "Name": "Benjamin Matienzo",
      "TotalSeats": 40933.851,
      "Country Name": "Argentina",
      "Latitude": -26.83329964,
      "Longitude": -65.19999695
   },
   "UAQ": {
      "Name": "Domingo F. Sarmiento",
      "TotalSeats": 11309.13,
      "Country Name": "Argentina",
      "Latitude": -31.56669998,
      "Longitude": -68.41670227
   },
   "USH": {
      "Name": "Malvinas Argentinas",
      "TotalSeats": 3977.694,
      "Country Name": "Argentina",
      "Latitude": -54.80279923,
      "Longitude": -68.32779694
   },
   "EVN": {
      "Name": "Zvartnots International Airport",
      "TotalSeats": 1876219.331,
      "Country Name": "Armenia",
      "Latitude": 40.15420151,
      "Longitude": 44.40140152
   },
   "LWN": {
      "Name": "Shirak",
      "TotalSeats": 71247.519,
      "Country Name": "Armenia",
      "Latitude": 40.71670151,
      "Longitude": 43.83330154
   },
   "AUA": {
      "Name": "Reina Beatrix",
      "TotalSeats": 3390247.525,
      "Country Name": "Aruba",
      "Latitude": 12.50220013,
      "Longitude": -70.01390076
   },
   "AAB": {
      "Name": "Arrabury Airport",
      "TotalSeats": 1308.566,
      "Country Name": "Australia",
      "Latitude": -26.70000076,
      "Longitude": 141.0417023
   },
   "ADL": {
      "Name": "Adelaide International",
      "TotalSeats": 693960.281,
      "Country Name": "Australia",
      "Latitude": -34.94829941,
      "Longitude": 138.5346985
   },
   "AVV": {
      "Name": "Avalon",
      "TotalSeats": 274434.888,
      "Country Name": "Australia",
      "Latitude": -38.04079819,
      "Longitude": 144.4680939
   },
   "BME": {
      "Name": "Broome International",
      "TotalSeats": 701.946,
      "Country Name": "Australia",
      "Latitude": -17.95000076,
      "Longitude": 122.2300034
   },
   "BNE": {
      "Name": "Brisbane Intl",
      "TotalSeats": 4171262.109,
      "Country Name": "Australia",
      "Latitude": -27.38500023,
      "Longitude": 153.1163025
   },
   "CBR": {
      "Name": "Canberra",
      "TotalSeats": 106496.474,
      "Country Name": "Australia",
      "Latitude": -35.30889893,
      "Longitude": 149.1950073
   },
   "CNS": {
      "Name": "Cairns International",
      "TotalSeats": 469445.886,
      "Country Name": "Australia",
      "Latitude": -16.88330078,
      "Longitude": 145.7516937
   },
   "DRW": {
      "Name": "Darwin International",
      "TotalSeats": 228375.098,
      "Country Name": "Australia",
      "Latitude": -12.41670036,
      "Longitude": 130.8721924
   },
   "GTE": {
      "Name": "Groote Eylandt",
      "TotalSeats": 1646.54,
      "Country Name": "Australia",
      "Latitude": -13.97220039,
      "Longitude": 136.4532929
   },
   "LEA": {
      "Name": "Learmonth",
      "TotalSeats": 1906.52,
      "Country Name": "Australia",
      "Latitude": -22.23500061,
      "Longitude": 114.0817032
   },
   "MCY": {
      "Name": "Maroochydore",
      "TotalSeats": 10776.171,
      "Country Name": "Australia",
      "Latitude": -26.60420036,
      "Longitude": 153.0899963
   },
   "MEL": {
      "Name": "Melbourne Airport",
      "TotalSeats": 7110682.649,
      "Country Name": "Australia",
      "Latitude": -37.6617012,
      "Longitude": 144.8332977
   },
   "MNV": {
      "Name": "Mount Valley",
      "TotalSeats": 649.95,
      "Country Name": "Australia",
      "Latitude": -14.11670017,
      "Longitude": 133.8332977
   },
   "NTL": {
      "Name": "Williamtown",
      "TotalSeats": 6863.472,
      "Country Name": "Australia",
      "Latitude": -32.79579926,
      "Longitude": 151.8332977
   },
   "OOL": {
      "Name": "Coolangatta",
      "TotalSeats": 590895.543,
      "Country Name": "Australia",
      "Latitude": -28.16670036,
      "Longitude": 153.5083008
   },
   "PER": {
      "Name": "Perth International",
      "TotalSeats": 2702574.427,
      "Country Name": "Australia",
      "Latitude": -31.93169975,
      "Longitude": 115.9682999
   },
   "PHE": {
      "Name": "Port Hedland International",
      "TotalSeats": 9151.296,
      "Country Name": "Australia",
      "Latitude": -20.37829971,
      "Longitude": 118.6275024
   },
   "SYD": {
      "Name": "Kingsford Smith",
      "TotalSeats": 10972585.89,
      "Country Name": "Australia",
      "Latitude": -33.94419861,
      "Longitude": 151.1757965
   },
   "TSV": {
      "Name": "Townsville International",
      "TotalSeats": 12167.064,
      "Country Name": "Australia",
      "Latitude": -19.25419998,
      "Longitude": 146.7642059
   },
   "GRZ": {
      "Name": "Graz",
      "TotalSeats": 580985.972,
      "Country Name": "Austria",
      "Latitude": 46.99330139,
      "Longitude": 15.43999958
   },
   "INN": {
      "Name": "Innsbruck airport",
      "TotalSeats": 518811.755,
      "Country Name": "Austria",
      "Latitude": 47.26029968,
      "Longitude": 11.34389973
   },
   "KLU": {
      "Name": "Klagenfurt",
      "TotalSeats": 56874.958,
      "Country Name": "Austria",
      "Latitude": 46.64310074,
      "Longitude": 14.3416996
   },
   "LNZ": {
      "Name": "Blue Danube",
      "TotalSeats": 226442.58,
      "Country Name": "Austria",
      "Latitude": 48.23329926,
      "Longitude": 14.1875
   },
   "SZG": {
      "Name": "Salzburg",
      "TotalSeats": 951609.127,
      "Country Name": "Austria",
      "Latitude": 47.79309845,
      "Longitude": 13.00559998
   },
   "VIE": {
      "Name": "Vienna International",
      "TotalSeats": 20076318.55,
      "Country Name": "Austria",
      "Latitude": 48.11109924,
      "Longitude": 16.55830002
   },
   "GBB": {
      "Name": "Gabala International Airport",
      "TotalSeats": 3015.768,
      "Country Name": "Azerbaijan",
      "Latitude": 40.79309845,
      "Longitude": 47.72579956
   },
   "GYD": {
      "Name": "Heydar Aliyev",
      "TotalSeats": 2681377.391,
      "Country Name": "Azerbaijan",
      "Latitude": 40.46659851,
      "Longitude": 50.05250168
   },
   "KVD": {
      "Name": "Ganja",
      "TotalSeats": 75597.851,
      "Country Name": "Azerbaijan",
      "Latitude": 40.73329926,
      "Longitude": 46.31669998
   },
   "LLK": {
      "Name": "Lankaran Airport",
      "TotalSeats": 12661.026,
      "Country Name": "Azerbaijan",
      "Latitude": 38.75889969,
      "Longitude": 48.8064003
   },
   "NAJ": {
      "Name": "Nakchivan Airport",
      "TotalSeats": 10689.511,
      "Country Name": "Azerbaijan",
      "Latitude": 39.19029999,
      "Longitude": 45.45890045
   },
   "ASD": {
      "Name": "Andros Town International",
      "TotalSeats": 1906.52,
      "Country Name": "Bahamas",
      "Latitude": 24.69779968,
      "Longitude": -77.7960968
   },
   "BIM": {
      "Name": "South Bimini Intl",
      "TotalSeats": 15837.115,
      "Country Name": "Bahamas",
      "Latitude": 25.69939995,
      "Longitude": -79.26560211
   },
   "CCZ": {
      "Name": "Chub Cay International",
      "TotalSeats": 1386.56,
      "Country Name": "Bahamas",
      "Latitude": 25.41749954,
      "Longitude": -77.88140106
   },
   "ELH": {
      "Name": "North Eleuthera",
      "TotalSeats": 72673.076,
      "Country Name": "Bahamas",
      "Latitude": 25.47470093,
      "Longitude": -76.68499756
   },
   "FPO": {
      "Name": "Grand Bahama International",
      "TotalSeats": 109399.584,
      "Country Name": "Bahamas",
      "Latitude": 26.55669975,
      "Longitude": -78.69940186
   },
   "GGT": {
      "Name": "Georgetown-Exuma International",
      "TotalSeats": 115192.805,
      "Country Name": "Bahamas",
      "Latitude": 23.46809959,
      "Longitude": -75.78250122
   },
   "GHB": {
      "Name": "Governor's Harbour",
      "TotalSeats": 6555.829,
      "Country Name": "Bahamas",
      "Latitude": 25.28389931,
      "Longitude": -76.33080292
   },
   "GHC": {
      "Name": "Great Harbour",
      "TotalSeats": 1906.52,
      "Country Name": "Bahamas",
      "Latitude": 25.73810005,
      "Longitude": -77.84030151
   },
   "IGA": {
      "Name": "Matthew Town",
      "TotalSeats": 129.99,
      "Country Name": "Bahamas",
      "Latitude": 20.98329926,
      "Longitude": -73.66670227
   },
   "MHH": {
      "Name": "Marsh Harbour",
      "TotalSeats": 134318.667,
      "Country Name": "Bahamas",
      "Latitude": 26.51110077,
      "Longitude": -77.08470154
   },
   "NAS": {
      "Name": "Lynden Pindling Intl",
      "TotalSeats": 2450016.856,
      "Country Name": "Bahamas",
      "Latitude": 25.04059982,
      "Longitude": -77.47190094
   },
   "NSB": {
      "Name": "North Seaplane Base",
      "TotalSeats": 11192.139,
      "Country Name": "Bahamas",
      "Latitude": 25.74970055,
      "Longitude": -79.27639771
   },
   "PID": {
      "Name": "Paradise Island",
      "TotalSeats": 8250.032,
      "Country Name": "Bahamas",
      "Latitude": 25.08329964,
      "Longitude": -77.30000305
   },
   "RSD": {
      "Name": "Rock Sound International",
      "TotalSeats": 779.94,
      "Country Name": "Bahamas",
      "Latitude": 24.89170075,
      "Longitude": -76.17810059
   },
   "SML": {
      "Name": "Stella Maris",
      "TotalSeats": 129.99,
      "Country Name": "Bahamas",
      "Latitude": 23.58329964,
      "Longitude": -75.26809692
   },
   "TBI": {
      "Name": "New Bight",
      "TotalSeats": 1975.848,
      "Country Name": "Bahamas",
      "Latitude": 24.31500053,
      "Longitude": -75.45359802
   },
   "TCB": {
      "Name": "Treasure Cay",
      "TotalSeats": 9445.94,
      "Country Name": "Bahamas",
      "Latitude": 26.73500061,
      "Longitude": -77.37220001
   },
   "TZN": {
      "Name": "South Andros",
      "TotalSeats": 987.924,
      "Country Name": "Bahamas",
      "Latitude": 24.6970005,
      "Longitude": -77.79579926
   },
   "ZSA": {
      "Name": "Cockburn Town",
      "TotalSeats": 19056.534,
      "Country Name": "Bahamas",
      "Latitude": 24.05999947,
      "Longitude": -74.53309631
   },
   "BAH": {
      "Name": "Bahrain Intl",
      "TotalSeats": 6799408.595,
      "Country Name": "Bahrain",
      "Latitude": 26.27079964,
      "Longitude": 50.63750076
   },
   "CGP": {
      "Name": "Shah Amanat International Airport",
      "TotalSeats": 556937.822,
      "Country Name": "Bangladesh",
      "Latitude": 22.2574997,
      "Longitude": 91.82559967
   },
   "CXB": {
      "Name": "Cox's Bazar",
      "TotalSeats": 3046.099,
      "Country Name": "Bangladesh",
      "Latitude": 21.45000076,
      "Longitude": 91.9681015
   },
   "DAC": {
      "Name": "Hazrat Shahjalal International",
      "TotalSeats": 5035855.93,
      "Country Name": "Bangladesh",
      "Latitude": 23.78059959,
      "Longitude": 90.38610077
   },
   "ZYL": {
      "Name": "Osmani International",
      "TotalSeats": 11824.757,
      "Country Name": "Bangladesh",
      "Latitude": 24.95890045,
      "Longitude": 91.87439728
   },
   "BGI": {
      "Name": "Grantley Adams International",
      "TotalSeats": 1403727.346,
      "Country Name": "Barbados",
      "Latitude": 13.07219982,
      "Longitude": -59.49309921
   },
   "BQT": {
      "Name": "Brest",
      "TotalSeats": 814.604,
      "Country Name": "Belarus",
      "Latitude": 52.11669922,
      "Longitude": 23.88330078
   },
   "GME": {
      "Name": "Gomel",
      "TotalSeats": 1221.906,
      "Country Name": "Belarus",
      "Latitude": 52.41669846,
      "Longitude": 31
   },
   "GNA": {
      "Name": "Grodno",
      "TotalSeats": 1221.906,
      "Country Name": "Belarus",
      "Latitude": 53.66669846,
      "Longitude": 23.79999924
   },
   "MHP": {
      "Name": "Minsk -1 Airport",
      "TotalSeats": 19446.504,
      "Country Name": "Belarus",
      "Latitude": 53.86669922,
      "Longitude": 27.54999924
   },
   "MSQ": {
      "Name": "Minsk International",
      "TotalSeats": 2729413.029,
      "Country Name": "Belarus",
      "Latitude": 53.86669922,
      "Longitude": 27.5333004
   },
   "VTB": {
      "Name": "Vitebsk Airport",
      "TotalSeats": 1221.906,
      "Country Name": "Belarus",
      "Latitude": 55.08330154,
      "Longitude": 30.2166996
   },
   "ANR": {
      "Name": "Antwerp International",
      "TotalSeats": 180798.758,
      "Country Name": "Belgium",
      "Latitude": 51.18999863,
      "Longitude": 4.460000038
   },
   "BRU": {
      "Name": "Brussels Airport",
      "TotalSeats": 16781804.33,
      "Country Name": "Belgium",
      "Latitude": 50.90140152,
      "Longitude": 4.484399796
   },
   "CRL": {
      "Name": "Brussels S. Charleroi",
      "TotalSeats": 4614380.687,
      "Country Name": "Belgium",
      "Latitude": 50.45920181,
      "Longitude": 4.45389986
   },
   "KJK": {
      "Name": "Wevelgem",
      "TotalSeats": 69.328,
      "Country Name": "Belgium",
      "Latitude": 50.81719971,
      "Longitude": 3.204699993
   },
   "LGG": {
      "Name": "Liege Airport",
      "TotalSeats": 86950.311,
      "Country Name": "Belgium",
      "Latitude": 50.63750076,
      "Longitude": 5.44329977
   },
   "OST": {
      "Name": "Oostende/Brugge",
      "TotalSeats": 246513.036,
      "Country Name": "Belgium",
      "Latitude": 51.1996994,
      "Longitude": 2.863600016
   },
   "BZE": {
      "Name": "Belize International",
      "TotalSeats": 852431.09,
      "Country Name": "Belize",
      "Latitude": 17.53610039,
      "Longitude": -88.30999756
   },
   "INB": {
      "Name": "Independence Airport",
      "TotalSeats": 2036.51,
      "Country Name": "Belize",
      "Latitude": 16.53499985,
      "Longitude": -88.44000244
   },
   "SPR": {
      "Name": "San Pedro",
      "TotalSeats": 207.984,
      "Country Name": "Belize",
      "Latitude": 17.91110039,
      "Longitude": -87.96859741
   },
   "TZA": {
      "Name": "Belize City Muni",
      "TotalSeats": 207.984,
      "Country Name": "Belize",
      "Latitude": 17.5156002,
      "Longitude": -88.19580078
   },
   "COO": {
      "Name": "Cadjehoun",
      "TotalSeats": 476798.987,
      "Country Name": "Benin",
      "Latitude": 6.354199886,
      "Longitude": 2.38560009
   },
   "BDA": {
      "Name": "L.F. Wade International",
      "TotalSeats": 786803.472,
      "Country Name": "Bermuda",
      "Latitude": 32.36529923,
      "Longitude": -64.69000244
   },
   "PBH": {
      "Name": "Paro International",
      "TotalSeats": 312656.281,
      "Country Name": "Bhutan",
      "Latitude": 27.43330002,
      "Longitude": 89.41670227
   },
   "CBB": {
      "Name": "Jorge Wilstermann Intl",
      "TotalSeats": 19992.462,
      "Country Name": "Bolivia",
      "Latitude": -17.42830086,
      "Longitude": -66.17169952
   },
   "LPB": {
      "Name": "El Alto International",
      "TotalSeats": 291775.554,
      "Country Name": "Bolivia",
      "Latitude": -16.50690079,
      "Longitude": -68.20140076
   },
   "ORU": {
      "Name": "Juan Mendoza",
      "TotalSeats": 2274.825,
      "Country Name": "Bolivia",
      "Latitude": -17.96419907,
      "Longitude": -67.08080292
   },
   "PSZ": {
      "Name": "Puerto Suarez International",
      "TotalSeats": 8735.328,
      "Country Name": "Bolivia",
      "Latitude": -18.9666996,
      "Longitude": -57.79999924
   },
   "SRJ": {
      "Name": "German Quiroga Guardia",
      "TotalSeats": 12431.377,
      "Country Name": "Bolivia",
      "Latitude": -14.85000038,
      "Longitude": -66.73329926
   },
   "TJA": {
      "Name": "Cap. Oriel Lea Plaza",
      "TotalSeats": 2118.837,
      "Country Name": "Bolivia",
      "Latitude": -21.55419922,
      "Longitude": -64.7457962
   },
   "VVI": {
      "Name": "Viru Viru Intl",
      "TotalSeats": 876955.87,
      "Country Name": "Bolivia",
      "Latitude": -17.64109993,
      "Longitude": -63.13389969
   },
   "BON": {
      "Name": "Flamingo International Airport",
      "TotalSeats": 239450.246,
      "Country Name": "Bonaire, Saint Eustatius & Saba",
      "Latitude": 12.1342001,
      "Longitude": -68.27330017
   },
   "EUX": {
      "Name": "F. D. Roosevelt",
      "TotalSeats": 26002.333,
      "Country Name": "Bonaire, Saint Eustatius & Saba",
      "Latitude": 17.49309921,
      "Longitude": -62.97779846
   },
   "SAB": {
      "Name": "Juancho E. Yrausquin",
      "TotalSeats": 21548.009,
      "Country Name": "Bonaire, Saint Eustatius & Saba",
      "Latitude": 17.64439964,
      "Longitude": -63.22219849
   },
   "BNX": {
      "Name": "Banja Luka International Airport",
      "TotalSeats": 93800.784,
      "Country Name": "Bosnia and Herzegovina",
      "Latitude": 44.9408989,
      "Longitude": 17.29759979
   },
   "OMO": {
      "Name": "Mostar International Airport",
      "TotalSeats": 17834.628,
      "Country Name": "Bosnia and Herzegovina",
      "Latitude": 43.28559876,
      "Longitude": 17.84670067
   },
   "SJJ": {
      "Name": "Sarajevo International Airport",
      "TotalSeats": 743902.439,
      "Country Name": "Bosnia and Herzegovina",
      "Latitude": 43.81890106,
      "Longitude": 18.33810043
   },
   "TZL": {
      "Name": "Tuzla International Airport",
      "TotalSeats": 326014.92,
      "Country Name": "Bosnia and Herzegovina",
      "Latitude": 44.45859909,
      "Longitude": 18.72400093
   },
   "BBK": {
      "Name": "Kasane",
      "TotalSeats": 32735.815,
      "Country Name": "Botswana",
      "Latitude": -17.7833004,
      "Longitude": 25.16670036
   },
   "FRW": {
      "Name": "Francistown",
      "TotalSeats": 5468.246,
      "Country Name": "Botswana",
      "Latitude": -21.15999985,
      "Longitude": 27.48250008
   },
   "GBE": {
      "Name": "Sir Seretse Khama Intl",
      "TotalSeats": 315715.379,
      "Country Name": "Botswana",
      "Latitude": -24.6541996,
      "Longitude": 25.94169998
   },
   "MUB": {
      "Name": "Maun",
      "TotalSeats": 77114.401,
      "Country Name": "Botswana",
      "Latitude": -19.9708004,
      "Longitude": 23.43059921
   },
   "AJU": {
      "Name": "Santa Maria",
      "TotalSeats": 1542.548,
      "Country Name": "Brazil",
      "Latitude": -10.98330021,
      "Longitude": -37.04999924
   },
   "ARU": {
      "Name": "Dario Guarita",
      "TotalSeats": 24264.8,
      "Country Name": "Brazil",
      "Latitude": -21.14360046,
      "Longitude": -50.42610169
   },
   "BEL": {
      "Name": "Val de Cans Intl",
      "TotalSeats": 124664.743,
      "Country Name": "Brazil",
      "Latitude": -1.378900051,
      "Longitude": -48.4756012
   },
   "BPS": {
      "Name": "Porto Seguro",
      "TotalSeats": 14480.886,
      "Country Name": "Brazil",
      "Latitude": -16.43330002,
      "Longitude": -39.08330154
   },
   "BSB": {
      "Name": "J. Kubitschek Intl",
      "TotalSeats": 479593.772,
      "Country Name": "Brazil",
      "Latitude": -15.86060047,
      "Longitude": -47.91529846
   },
   "BVB": {
      "Name": "A.B. Cantanhede Intl",
      "TotalSeats": 4748.968,
      "Country Name": "Brazil",
      "Latitude": 2.833300114,
      "Longitude": -60.66669846
   },
   "CFB": {
      "Name": "Cabo Frio International",
      "TotalSeats": 3067.764,
      "Country Name": "Brazil",
      "Latitude": -22.92499924,
      "Longitude": -42.07860184
   },
   "CGB": {
      "Name": "Marechal Rondon Intl",
      "TotalSeats": 2491.475,
      "Country Name": "Brazil",
      "Latitude": -15.64999962,
      "Longitude": -56.11669922
   },
   "CGH": {
      "Name": "Congonhas",
      "TotalSeats": 753.942,
      "Country Name": "Brazil",
      "Latitude": -23.62610054,
      "Longitude": -46.65639877
   },
   "CGR": {
      "Name": "Campo Grande International",
      "TotalSeats": 3466.4,
      "Country Name": "Brazil",
      "Latitude": -20.46330071,
      "Longitude": -54.67250061
   },
   "CNF": {
      "Name": "Tancredo Never International",
      "TotalSeats": 239822.884,
      "Country Name": "Brazil",
      "Latitude": -19.63330078,
      "Longitude": -43.96670151
   },
   "CPQ": {
      "Name": "Campinas Intl",
      "TotalSeats": 20265.441,
      "Country Name": "Brazil",
      "Latitude": -23,
      "Longitude": -47.13330078
   },
   "CWB": {
      "Name": "Afonso Pena International",
      "TotalSeats": 60493.013,
      "Country Name": "Brazil",
      "Latitude": -25.52669907,
      "Longitude": -49.17779923
   },
   "FLN": {
      "Name": "Hercilio Luz International",
      "TotalSeats": 170048.585,
      "Country Name": "Brazil",
      "Latitude": -27.66970062,
      "Longitude": -48.55059815
   },
   "FOR": {
      "Name": "Pinto Martins International",
      "TotalSeats": 379887.109,
      "Country Name": "Brazil",
      "Latitude": -3.77670002,
      "Longitude": -38.53440094
   },
   "GIG": {
      "Name": "Galeao-A.C.Jobim Intl",
      "TotalSeats": 2641539.789,
      "Country Name": "Brazil",
      "Latitude": -22.80780029,
      "Longitude": -43.24330139
   },
   "GRU": {
      "Name": "Guarulhos Intl",
      "TotalSeats": 9004121.322,
      "Country Name": "Brazil",
      "Latitude": -23.43499947,
      "Longitude": -46.47280121
   },
   "GYN": {
      "Name": "Santa Genoveva",
      "TotalSeats": 10919.16,
      "Country Name": "Brazil",
      "Latitude": -16.63829994,
      "Longitude": -49.21080017
   },
   "IGU": {
      "Name": "Cataratas International",
      "TotalSeats": 48148.296,
      "Country Name": "Brazil",
      "Latitude": -25.52470017,
      "Longitude": -54.58470154
   },
   "JPA": {
      "Name": "Castro Pinto International",
      "TotalSeats": 3223.752,
      "Country Name": "Brazil",
      "Latitude": -7.146399975,
      "Longitude": -34.95190048
   },
   "LVB": {
      "Name": "Santana do Livramento",
      "TotalSeats": 4263.672,
      "Country Name": "Brazil",
      "Latitude": -30.83329964,
      "Longitude": -55.61669922
   },
   "MAO": {
      "Name": "Eduardo Gomes Intl",
      "TotalSeats": 128768.094,
      "Country Name": "Brazil",
      "Latitude": -3.039200068,
      "Longitude": -60.04999924
   },
   "MCP": {
      "Name": "Alberto Alcolumbre International",
      "TotalSeats": 2521.806,
      "Country Name": "Brazil",
      "Latitude": 0.050000001,
      "Longitude": -51.06669998
   },
   "MCZ": {
      "Name": "Zumbi dos Palmares Int",
      "TotalSeats": 3223.752,
      "Country Name": "Brazil",
      "Latitude": -9.515299797,
      "Longitude": -35.79579926
   },
   "MII": {
      "Name": "Frank M. Milenkowichi",
      "TotalSeats": 5199.6,
      "Country Name": "Brazil",
      "Latitude": -22.2166996,
      "Longitude": -49.93330002
   },
   "NAT": {
      "Name": "Natal International",
      "TotalSeats": 58885.47,
      "Country Name": "Brazil",
      "Latitude": -5.768099785,
      "Longitude": -35.37609863
   },
   "NVT": {
      "Name": "Victor Konder Intl",
      "TotalSeats": 7158.116,
      "Country Name": "Brazil",
      "Latitude": -26.87940025,
      "Longitude": -48.6507988
   },
   "PLU": {
      "Name": "Pampulha",
      "TotalSeats": 4073.02,
      "Country Name": "Brazil",
      "Latitude": -19.85169983,
      "Longitude": -43.95080185
   },
   "POA": {
      "Name": "Salgado Filho Intl",
      "TotalSeats": 328584.389,
      "Country Name": "Brazil",
      "Latitude": -29.99329948,
      "Longitude": -51.17079926
   },
   "RBR": {
      "Name": "Placido de Castro Intl",
      "TotalSeats": 2322.488,
      "Country Name": "Brazil",
      "Latitude": -9.9666996,
      "Longitude": -67.80000305
   },
   "REC": {
      "Name": "Guararapes International",
      "TotalSeats": 358447.425,
      "Country Name": "Brazil",
      "Latitude": -8.125800133,
      "Longitude": -34.9239006
   },
   "RIG": {
      "Name": "Rio Grande Regional",
      "TotalSeats": 6187.524,
      "Country Name": "Brazil",
      "Latitude": -32.08190155,
      "Longitude": -52.16640091
   },
   "ROO": {
      "Name": "Maestro Marinho Franco",
      "TotalSeats": 1949.85,
      "Country Name": "Brazil",
      "Latitude": -16.43330002,
      "Longitude": -54.72859955
   },
   "SDU": {
      "Name": "Santos Dumont",
      "TotalSeats": 3462.067,
      "Country Name": "Brazil",
      "Latitude": -22.90999985,
      "Longitude": -43.16279984
   },
   "SSA": {
      "Name": "Luis E. Magalhaes Intl",
      "TotalSeats": 272506.703,
      "Country Name": "Brazil",
      "Latitude": -12.91559982,
      "Longitude": -38.33610153
   },
   "UBA": {
      "Name": "M. de Almeida Franco",
      "TotalSeats": 5199.6,
      "Country Name": "Brazil",
      "Latitude": -19.77639961,
      "Longitude": -47.95830154
   },
   "VAG": {
      "Name": "Varginha",
      "TotalSeats": 1949.85,
      "Country Name": "Brazil",
      "Latitude": -21.54999924,
      "Longitude": -45.43330002
   },
   "VCP": {
      "Name": "Viracopos-Campinas Intl",
      "TotalSeats": 560464.884,
      "Country Name": "Brazil",
      "Latitude": -23.00670052,
      "Longitude": -47.13439941
   },
   "VIX": {
      "Name": "E. de Aguiar Salles",
      "TotalSeats": 2539.138,
      "Country Name": "Brazil",
      "Latitude": -20.26440048,
      "Longitude": -40.28749847
   },
   "EIS": {
      "Name": "Terrance B. Lettsome",
      "TotalSeats": 234029.663,
      "Country Name": "British Virgin Islands",
      "Latitude": 18.44389916,
      "Longitude": -64.5428009
   },
   "NGD": {
      "Name": "Auguste George",
      "TotalSeats": 13830.936,
      "Country Name": "British Virgin Islands",
      "Latitude": 18.7166996,
      "Longitude": -64.30000305
   },
   "TOV": {
      "Name": "West End Spb",
      "TotalSeats": 5459.58,
      "Country Name": "British Virgin Islands",
      "Latitude": 18.45000076,
      "Longitude": -64.58329773
   },
   "VIJ": {
      "Name": "Virgin Gorda",
      "TotalSeats": 20317.437,
      "Country Name": "British Virgin Islands",
      "Latitude": 18.44639969,
      "Longitude": -64.42970276
   },
   "BWN": {
      "Name": "Brunei International",
      "TotalSeats": 1364435.702,
      "Country Name": "Brunei Darussalam",
      "Latitude": 4.925000191,
      "Longitude": 114.927803
   },
   "BOJ": {
      "Name": "Burgas",
      "TotalSeats": 1124864.132,
      "Country Name": "Bulgaria",
      "Latitude": 42.56969833,
      "Longitude": 27.51530075
   },
   "PDV": {
      "Name": "Krumovo",
      "TotalSeats": 39993.59,
      "Country Name": "Bulgaria",
      "Latitude": 42.06779862,
      "Longitude": 24.85079956
   },
   "SOF": {
      "Name": "Sofia-Vrazhdebna",
      "TotalSeats": 3937878.063,
      "Country Name": "Bulgaria",
      "Latitude": 42.70000076,
      "Longitude": 23.39999962
   },
   "VAR": {
      "Name": "Varna",
      "TotalSeats": 711010.636,
      "Country Name": "Bulgaria",
      "Latitude": 43.23189926,
      "Longitude": 27.82500076
   },
   "VID": {
      "Name": "Vidin",
      "TotalSeats": 2911.776,
      "Country Name": "Bulgaria",
      "Latitude": 44,
      "Longitude": 22.83329964
   },
   "BOY": {
      "Name": "Bobo Dioulasso",
      "TotalSeats": 6139.861,
      "Country Name": "Burkina Faso",
      "Latitude": 11.16359997,
      "Longitude": -4.326399803
   },
   "OUA": {
      "Name": "Ouagadougou",
      "TotalSeats": 471096.759,
      "Country Name": "Burkina Faso",
      "Latitude": 12.35219955,
      "Longitude": -1.513299942
   },
   "BJM": {
      "Name": "Bujumbura Intl",
      "TotalSeats": 143495.961,
      "Country Name": "Burundi",
      "Latitude": -3.331700087,
      "Longitude": 29.32080078
   },
   "KOS": {
      "Name": "Sihanoukville International",
      "TotalSeats": 1136883.874,
      "Country Name": "Cambodia",
      "Latitude": 10.5795002,
      "Longitude": 103.6369019
   },
   "PNH": {
      "Name": "Phnom Penh International",
      "TotalSeats": 4094152.041,
      "Country Name": "Cambodia",
      "Latitude": 11.54609966,
      "Longitude": 104.8478012
   },
   "REP": {
      "Name": "Angkor International",
      "TotalSeats": 2414884.892,
      "Country Name": "Cambodia",
      "Latitude": 13.40890026,
      "Longitude": 103.8158035
   },
   "DLA": {
      "Name": "Douala International",
      "TotalSeats": 573312.229,
      "Country Name": "Cameroon",
      "Latitude": 4.013299942,
      "Longitude": 9.709199905
   },
   "GOU": {
      "Name": "Garoua International",
      "TotalSeats": 2482.809,
      "Country Name": "Cameroon",
      "Latitude": 9.336099625,
      "Longitude": 13.37559986
   },
   "MVR": {
      "Name": "Salak",
      "TotalSeats": 2079.84,
      "Country Name": "Cameroon",
      "Latitude": 10.45219994,
      "Longitude": 14.25640011
   },
   "NGE": {
      "Name": "Ngaoundere",
      "TotalSeats": 4255.006,
      "Country Name": "Cameroon",
      "Latitude": 7.356400013,
      "Longitude": 13.56140041
   },
   "NSI": {
      "Name": "Nsimalen Intl",
      "TotalSeats": 238969.283,
      "Country Name": "Cameroon",
      "Latitude": 3.716700077,
      "Longitude": 11.55000019
   },
   "YAO": {
      "Name": "Yaounde-Ville Apt",
      "TotalSeats": 285.978,
      "Country Name": "Cameroon",
      "Latitude": 3.833600044,
      "Longitude": 11.52359963
   },
   "CXH": {
      "Name": "Harbour SPB",
      "TotalSeats": 8211.035,
      "Country Name": "Canada",
      "Latitude": 49.29999924,
      "Longitude": -123.1333008
   },
   "XHM": {
      "Name": "Georgetown Rail Service",
      "TotalSeats": 831.936,
      "Country Name": "Canada",
      "Latitude": 43.66669846,
      "Longitude": -79.9332962
   },
   "YAJ": {
      "Name": "Lyall Harbour SPB",
      "TotalSeats": 493.962,
      "Country Name": "Canada",
      "Latitude": 48.79999924,
      "Longitude": -123.199997
   },
   "YAM": {
      "Name": "Sault Ste Marie",
      "TotalSeats": 823.27,
      "Country Name": "Canada",
      "Latitude": 46.48310089,
      "Longitude": -84.50859833
   },
   "YAQ": {
      "Name": "Maple Bay SPB",
      "TotalSeats": 493.962,
      "Country Name": "Canada",
      "Latitude": 48.81669998,
      "Longitude": -123.6166992
   },
   "YAV": {
      "Name": "Miners Bay SPB",
      "TotalSeats": 493.962,
      "Country Name": "Canada",
      "Latitude": 48.86669922,
      "Longitude": -123.3000031
   },
   "YAZ": {
      "Name": "Long Beach",
      "TotalSeats": 2430.813,
      "Country Name": "Canada",
      "Latitude": 49.07690048,
      "Longitude": -125.7763977
   },
   "YBG": {
      "Name": "Saguenay Bagotville",
      "TotalSeats": 6586.16,
      "Country Name": "Canada",
      "Latitude": 48.32220078,
      "Longitude": -70.98860169
   },
   "YBL": {
      "Name": "Campbell River",
      "TotalSeats": 10724.175,
      "Country Name": "Canada",
      "Latitude": 49.9510994,
      "Longitude": -125.2694016
   },
   "YBW": {
      "Name": "Bedwell Harbour SPB",
      "TotalSeats": 493.962,
      "Country Name": "Canada",
      "Latitude": 48.75,
      "Longitude": -123.2332993
   },
   "YCD": {
      "Name": "Nanaimo Airport",
      "TotalSeats": 346.64,
      "Country Name": "Canada",
      "Latitude": 49.05279923,
      "Longitude": -123.8692017
   },
   "YCF": {
      "Name": "Cortes Bay SPB",
      "TotalSeats": 935.928,
      "Country Name": "Canada",
      "Latitude": 50.05690002,
      "Longitude": -124.8332977
   },
   "YDA": {
      "Name": "Dawson City",
      "TotalSeats": 1039.92,
      "Country Name": "Canada",
      "Latitude": 64.04170227,
      "Longitude": -139.1208038
   },
   "YDF": {
      "Name": "Regional",
      "TotalSeats": 823.27,
      "Country Name": "Canada",
      "Latitude": 49.21670151,
      "Longitude": -57.40000153
   },
   "YDS": {
      "Name": "Desolation Sound",
      "TotalSeats": 8484.014,
      "Country Name": "Canada",
      "Latitude": 50.18330002,
      "Longitude": -124.699997
   },
   "YEG": {
      "Name": "Edmonton Intl",
      "TotalSeats": 980930.538,
      "Country Name": "Canada",
      "Latitude": 53.30419922,
      "Longitude": -113.5916977
   },
   "YFB": {
      "Name": "Iqaluit Airport",
      "TotalSeats": 1122.247,
      "Country Name": "Canada",
      "Latitude": 63.75220108,
      "Longitude": -68.56390381
   },
   "YFC": {
      "Name": "Fredericton International",
      "TotalSeats": 4099.018,
      "Country Name": "Canada",
      "Latitude": 45.86669922,
      "Longitude": -66.53330231
   },
   "YGE": {
      "Name": "Gorge Harbour SPB",
      "TotalSeats": 571.956,
      "Country Name": "Canada",
      "Latitude": 50.08330154,
      "Longitude": -124.949997
   },
   "YGG": {
      "Name": "Ganges SPB",
      "TotalSeats": 493.962,
      "Country Name": "Canada",
      "Latitude": 48.84999847,
      "Longitude": -123.5
   },
   "YGN": {
      "Name": "Greenway Sound SPB",
      "TotalSeats": 935.928,
      "Country Name": "Canada",
      "Latitude": 49.36669922,
      "Longitude": -99.11669922
   },
   "YGR": {
      "Name": "Iles de La Madeleine",
      "TotalSeats": 415.968,
      "Country Name": "Canada",
      "Latitude": 47.36669922,
      "Longitude": -61.90000153
   },
   "YHG": {
      "Name": "Charlottetown",
      "TotalSeats": 818.937,
      "Country Name": "Canada",
      "Latitude": 48.95000076,
      "Longitude": -57.93330002
   },
   "YHH": {
      "Name": "Campbell River SPB",
      "TotalSeats": 4852.96,
      "Country Name": "Canada",
      "Latitude": 50.01670075,
      "Longitude": -125.25
   },
   "YHM": {
      "Name": "John C. Munro Hamilton",
      "TotalSeats": 190664.999,
      "Country Name": "Canada",
      "Latitude": 43.16690064,
      "Longitude": -79.93060303
   },
   "YHS": {
      "Name": "Sechelt Airport",
      "TotalSeats": 8484.014,
      "Country Name": "Canada",
      "Latitude": 49.46670151,
      "Longitude": -123.75
   },
   "YHZ": {
      "Name": "Halifax Intl",
      "TotalSeats": 485919.952,
      "Country Name": "Canada",
      "Latitude": 44.88330078,
      "Longitude": -63.51670075
   },
   "YIG": {
      "Name": "Big Bay SPB",
      "TotalSeats": 103.992,
      "Country Name": "Canada",
      "Latitude": 50.40940094,
      "Longitude": -125.1312027
   },
   "YKA": {
      "Name": "Kamloops",
      "TotalSeats": 6733.482,
      "Country Name": "Canada",
      "Latitude": 50.69919968,
      "Longitude": -120.4383011
   },
   "YKF": {
      "Name": "Region of Waterloo International",
      "TotalSeats": 3379.74,
      "Country Name": "Canada",
      "Latitude": 43.45560074,
      "Longitude": -80.3839035
   },
   "YLW": {
      "Name": "Kelowna International",
      "TotalSeats": 97709.15,
      "Country Name": "Canada",
      "Latitude": 49.96530151,
      "Longitude": -119.3778
   },
   "YMF": {
      "Name": "Montague Harbour SPB",
      "TotalSeats": 493.962,
      "Country Name": "Canada",
      "Latitude": 48.81669998,
      "Longitude": -123.199997
   },
   "YMM": {
      "Name": "Fort McMurray",
      "TotalSeats": 2469.81,
      "Country Name": "Canada",
      "Latitude": 56.65280151,
      "Longitude": -111.2205963
   },
   "YMP": {
      "Name": "Port Mcneill Airport",
      "TotalSeats": 606.62,
      "Country Name": "Canada",
      "Latitude": 50.58330154,
      "Longitude": -127.0999985
   },
   "YOC": {
      "Name": "Old Crow",
      "TotalSeats": 2079.84,
      "Country Name": "Canada",
      "Latitude": 67.58329773,
      "Longitude": -139.8332977
   },
   "YOW": {
      "Name": "Macdonald-Cartier Intl",
      "TotalSeats": 831611.025,
      "Country Name": "Canada",
      "Latitude": 45.32080078,
      "Longitude": -75.67279816
   },
   "YPM": {
      "Name": "Pikangikum",
      "TotalSeats": 77.994,
      "Country Name": "Canada",
      "Latitude": 51.81669998,
      "Longitude": -94
   },
   "YPT": {
      "Name": "Pender Harbour SPB",
      "TotalSeats": 935.928,
      "Country Name": "Canada",
      "Latitude": 49.5,
      "Longitude": -124.0333023
   },
   "YQB": {
      "Name": "Jean Lesage Intl",
      "TotalSeats": 346891.314,
      "Country Name": "Canada",
      "Latitude": 46.78919983,
      "Longitude": -71.39810181
   },
   "YQG": {
      "Name": "Windsor",
      "TotalSeats": 16504.397,
      "Country Name": "Canada",
      "Latitude": 42.27420044,
      "Longitude": -82.96389771
   },
   "YQI": {
      "Name": "Yarmouth",
      "TotalSeats": 2963.772,
      "Country Name": "Canada",
      "Latitude": 43.83330154,
      "Longitude": -66.08329773
   },
   "YQJ": {
      "Name": "April Point Sea Plane Base",
      "TotalSeats": 935.928,
      "Country Name": "Canada",
      "Latitude": 50.06499863,
      "Longitude": -125.2347031
   },
   "YQL": {
      "Name": "Lethbridge County",
      "TotalSeats": 537.292,
      "Country Name": "Canada",
      "Latitude": 49.63190079,
      "Longitude": -112.7917023
   },
   "YQM": {
      "Name": "Greater Moncton Intl",
      "TotalSeats": 22930.236,
      "Country Name": "Canada",
      "Latitude": 46.10889816,
      "Longitude": -64.68830109
   },
   "YQQ": {
      "Name": "Comox",
      "TotalSeats": 3483.732,
      "Country Name": "Canada",
      "Latitude": 49.71670151,
      "Longitude": -124.8933029
   },
   "YQR": {
      "Name": "Regina International",
      "TotalSeats": 50930.082,
      "Country Name": "Canada",
      "Latitude": 50.43190002,
      "Longitude": -104.665802
   },
   "YQT": {
      "Name": "Thunder Bay International",
      "TotalSeats": 4103.351,
      "Country Name": "Canada",
      "Latitude": 48.36970139,
      "Longitude": -89.32779694
   },
   "YQU": {
      "Name": "Grande Prairie",
      "TotalSeats": 2469.81,
      "Country Name": "Canada",
      "Latitude": 55.17969894,
      "Longitude": -118.8835983
   },
   "YQX": {
      "Name": "Gander International",
      "TotalSeats": 823.27,
      "Country Name": "Canada",
      "Latitude": 48.94670105,
      "Longitude": -54.56330109
   },
   "YQY": {
      "Name": "J.A. Douglas McCurdy",
      "TotalSeats": 190.652,
      "Country Name": "Canada",
      "Latitude": 46.16669846,
      "Longitude": -60.04999924
   },
   "YRC": {
      "Name": "Refuge Cove Sea Plane Base",
      "TotalSeats": 935.928,
      "Country Name": "Canada",
      "Latitude": 50.12390137,
      "Longitude": -124.8394013
   },
   "YRR": {
      "Name": "Airstrip",
      "TotalSeats": 831.936,
      "Country Name": "Canada",
      "Latitude": 50.41669846,
      "Longitude": -125.1667023
   },
   "YSB": {
      "Name": "Sudbury",
      "TotalSeats": 1646.54,
      "Country Name": "Canada",
      "Latitude": 46.62689972,
      "Longitude": -80.79810333
   },
   "YSJ": {
      "Name": "Saint John",
      "TotalSeats": 2456.811,
      "Country Name": "Canada",
      "Latitude": 45.31669998,
      "Longitude": -65.88330078
   },
   "YTG": {
      "Name": "SPB",
      "TotalSeats": 1039.92,
      "Country Name": "Canada",
      "Latitude": 55.88330078,
      "Longitude": -126.8396988
   },
   "YTM": {
      "Name": "Mont-Tremblant Intl Airport",
      "TotalSeats": 944.594,
      "Country Name": "Canada",
      "Latitude": 46.5155983,
      "Longitude": -74.75530243
   },
   "YTZ": {
      "Name": "Billy Bishop Toronto City Airport",
      "TotalSeats": 657155.779,
      "Country Name": "Canada",
      "Latitude": 43.65000153,
      "Longitude": -79.38330078
   },
   "YUL": {
      "Name": "Pierre E. Trudeau Intl",
      "TotalSeats": 8378583.444,
      "Country Name": "Canada",
      "Latitude": 45.46390152,
      "Longitude": -73.75
   },
   "YUY": {
      "Name": "Rouyn-Noranda",
      "TotalSeats": 1234.905,
      "Country Name": "Canada",
      "Latitude": 48.20560074,
      "Longitude": -78.83059692
   },
   "YVO": {
      "Name": "Val d'Or",
      "TotalSeats": 3293.08,
      "Country Name": "Canada",
      "Latitude": 48.05279923,
      "Longitude": -77.78279877
   },
   "YVR": {
      "Name": "Vancouver Intl",
      "TotalSeats": 9339759.835,
      "Country Name": "Canada",
      "Latitude": 49.18719864,
      "Longitude": -123.1853027
   },
   "YVZ": {
      "Name": "Deer Lake",
      "TotalSeats": 77.994,
      "Country Name": "Canada",
      "Latitude": 52.66669846,
      "Longitude": -94.5
   },
   "YWG": {
      "Name": "J.A. Richardson Intl",
      "TotalSeats": 564009.278,
      "Country Name": "Canada",
      "Latitude": 49.90000153,
      "Longitude": -97.23329926
   },
   "YWH": {
      "Name": "Inner Harbour SPB",
      "TotalSeats": 37437.12,
      "Country Name": "Canada",
      "Latitude": 48.65499878,
      "Longitude": -123.4666977
   },
   "YXC": {
      "Name": "Canadian Rockies Intl",
      "TotalSeats": 3899.7,
      "Country Name": "Canada",
      "Latitude": 49.53329849,
      "Longitude": -115.7667007
   },
   "YXE": {
      "Name": "J.G. Diefenbaker Intl",
      "TotalSeats": 148634.899,
      "Country Name": "Canada",
      "Latitude": 52.16669846,
      "Longitude": -106.6832962
   },
   "YXS": {
      "Name": "Prince George",
      "TotalSeats": 2903.11,
      "Country Name": "Canada",
      "Latitude": 53.89170075,
      "Longitude": -122.6750031
   },
   "YXU": {
      "Name": "London International",
      "TotalSeats": 23801.169,
      "Country Name": "Canada",
      "Latitude": 43.03329849,
      "Longitude": -81.15000153
   },
   "YXX": {
      "Name": "Abbotsford International",
      "TotalSeats": 42584.724,
      "Country Name": "Canada",
      "Latitude": 49.02389908,
      "Longitude": -122.3660965
   },
   "YXY": {
      "Name": "Erik Nielsen Intl",
      "TotalSeats": 4883.291,
      "Country Name": "Canada",
      "Latitude": 60.71670151,
      "Longitude": -135.0666962
   },
   "YYB": {
      "Name": "Jack Garland",
      "TotalSeats": 1646.54,
      "Country Name": "Canada",
      "Latitude": 46.36579895,
      "Longitude": -79.42140198
   },
   "YYC": {
      "Name": "Calgary Intl",
      "TotalSeats": 3745059.563,
      "Country Name": "Canada",
      "Latitude": 51.1128006,
      "Longitude": -114.0196991
   },
   "YYG": {
      "Name": "Charlottetown",
      "TotalSeats": 3891.034,
      "Country Name": "Canada",
      "Latitude": 46.28609848,
      "Longitude": -63.13059998
   },
   "YYJ": {
      "Name": "Victoria Intl",
      "TotalSeats": 162045.534,
      "Country Name": "Canada",
      "Latitude": 48.64860153,
      "Longitude": -123.4235992
   },
   "YYR": {
      "Name": "Goose Bay",
      "TotalSeats": 667.282,
      "Country Name": "Canada",
      "Latitude": 53.31669998,
      "Longitude": -60.41669846
   },
   "YYT": {
      "Name": "St Johns International",
      "TotalSeats": 30071.02,
      "Country Name": "Canada",
      "Latitude": 47.6169014,
      "Longitude": -52.75
   },
   "YYZ": {
      "Name": "Toronto Lester B. Pearson Intl",
      "TotalSeats": 20579124.2,
      "Country Name": "Canada",
      "Latitude": 43.67969894,
      "Longitude": -79.625
   },
   "YZF": {
      "Name": "Yellowknife",
      "TotalSeats": 1204.574,
      "Country Name": "Canada",
      "Latitude": 62.46889877,
      "Longitude": -114.4441986
   },
   "YZT": {
      "Name": "Port Hardy",
      "TotalSeats": 606.62,
      "Country Name": "Canada",
      "Latitude": 50.68059921,
      "Longitude": -127.3638992
   },
   "YZV": {
      "Name": "Sept-Iles",
      "TotalSeats": 1234.905,
      "Country Name": "Canada",
      "Latitude": 50.21670151,
      "Longitude": -66.28330231
   },
   "ZAC": {
      "Name": "York Landing",
      "TotalSeats": 82.327,
      "Country Name": "Canada",
      "Latitude": 56.09030151,
      "Longitude": -96.0911026
   },
   "ZNA": {
      "Name": "Harbour SPB",
      "TotalSeats": 3206.42,
      "Country Name": "Canada",
      "Latitude": 49.15000153,
      "Longitude": -123.9332962
   },
   "BVC": {
      "Name": "Rabil Airport",
      "TotalSeats": 216134.373,
      "Country Name": "Cape Verde",
      "Latitude": 16.08329964,
      "Longitude": -22.83329964
   },
   "RAI": {
      "Name": "Praia International",
      "TotalSeats": 251504.652,
      "Country Name": "Cape Verde",
      "Latitude": 14.92529964,
      "Longitude": -23.50309944
   },
   "SID": {
      "Name": "Amilcar Cabral Intl",
      "TotalSeats": 657467.755,
      "Country Name": "Cape Verde",
      "Latitude": 16.74500084,
      "Longitude": -22.95170021
   },
   "VXE": {
      "Name": "San Pedro",
      "TotalSeats": 69427.659,
      "Country Name": "Cape Verde",
      "Latitude": 16.83329964,
      "Longitude": -25.06669998
   },
   "CYB": {
      "Name": "C. Kirkconnell Intl",
      "TotalSeats": 3171.756,
      "Country Name": "Cayman Islands",
      "Latitude": 19.68670082,
      "Longitude": -79.88469696
   },
   "GCM": {
      "Name": "Owen Roberts Intl",
      "TotalSeats": 1084385.246,
      "Country Name": "Cayman Islands",
      "Latitude": 19.29249954,
      "Longitude": -81.35810089
   },
   "BGF": {
      "Name": "Mpoko International Airport",
      "TotalSeats": 105408.891,
      "Country Name": "Central African Republic",
      "Latitude": 4.396100044,
      "Longitude": 18.52029991
   },
   "NDJ": {
      "Name": "Ndjamena",
      "TotalSeats": 205739.506,
      "Country Name": "Chad",
      "Latitude": 12.13469982,
      "Longitude": 15.03499985
   },
   "ANF": {
      "Name": "Cerro Moreno",
      "TotalSeats": 23996.154,
      "Country Name": "Chile",
      "Latitude": -23.43939972,
      "Longitude": -70.44280243
   },
   "ARI": {
      "Name": "Chacalluta",
      "TotalSeats": 753.942,
      "Country Name": "Chile",
      "Latitude": -18.33309937,
      "Longitude": -70.33809662
   },
   "CJC": {
      "Name": "El Loa",
      "TotalSeats": 11361.126,
      "Country Name": "Chile",
      "Latitude": -22.48719978,
      "Longitude": -68.91670227
   },
   "IPC": {
      "Name": "Mataveri Intl",
      "TotalSeats": 7305.438,
      "Country Name": "Chile",
      "Latitude": -27.16500092,
      "Longitude": -109.4266968
   },
   "IQQ": {
      "Name": "Diego Aracena",
      "TotalSeats": 23909.494,
      "Country Name": "Chile",
      "Latitude": -20.2317009,
      "Longitude": -70.14080048
   },
   "LSC": {
      "Name": "La Florida",
      "TotalSeats": 10321.206,
      "Country Name": "Chile",
      "Latitude": -29.91329956,
      "Longitude": -71.19779968
   },
   "PMC": {
      "Name": "El Tepual",
      "TotalSeats": 649.95,
      "Country Name": "Chile",
      "Latitude": -41.43249893,
      "Longitude": -73.09030151
   },
   "PNT": {
      "Name": "Teniente J. Gallardo Airport",
      "TotalSeats": 181.986,
      "Country Name": "Chile",
      "Latitude": -51.68330002,
      "Longitude": -72.51670075
   },
   "PUQ": {
      "Name": "C.Ibanez del Campo",
      "TotalSeats": 6668.487,
      "Country Name": "Chile",
      "Latitude": -53.12639999,
      "Longitude": -70.87750244
   },
   "SCL": {
      "Name": "Arturo Merino Benitez Airport",
      "TotalSeats": 7009498.433,
      "Country Name": "Chile",
      "Latitude": -33.38669968,
      "Longitude": -70.78500366
   },
   "ZCO": {
      "Name": "La Araucania",
      "TotalSeats": 147.322,
      "Country Name": "Chile",
      "Latitude": -38.76390076,
      "Longitude": -72.63690186
   },
   "AVA": {
      "Name": "Huangguoshu",
      "TotalSeats": 1291.234,
      "Country Name": "China",
      "Latitude": 26.25720024,
      "Longitude": 105.8728027
   },
   "BAV": {
      "Name": "Erliban",
      "TotalSeats": 7071.456,
      "Country Name": "China",
      "Latitude": 40.66669846,
      "Longitude": 109.9832993
   },
   "BFJ": {
      "Name": "Bijie Airport",
      "TotalSeats": 1291.234,
      "Country Name": "China",
      "Latitude": 27.26670075,
      "Longitude": 105.4710999
   },
   "BHY": {
      "Name": "Fucheng",
      "TotalSeats": 35972.566,
      "Country Name": "China",
      "Latitude": 21.48329926,
      "Longitude": 109.0832977
   },
   "BPE": {
      "Name": "Beidaihe",
      "TotalSeats": 6378.176,
      "Country Name": "China",
      "Latitude": 39.66640091,
      "Longitude": 119.0599976
   },
   "CAN": {
      "Name": "Baiyun International",
      "TotalSeats": 12424838.5,
      "Country Name": "China",
      "Latitude": 23.39249992,
      "Longitude": 113.2996979
   },
   "CGO": {
      "Name": "Xinzheng International",
      "TotalSeats": 1204080.038,
      "Country Name": "China",
      "Latitude": 34.75,
      "Longitude": 113.6667023
   },
   "CGQ": {
      "Name": "Longjia International",
      "TotalSeats": 366043.174,
      "Country Name": "China",
      "Latitude": 43.91669846,
      "Longitude": 125.3332977
   },
   "CKG": {
      "Name": "Jiangbei International",
      "TotalSeats": 2063049.625,
      "Country Name": "China",
      "Latitude": 29.49580002,
      "Longitude": 106.3597031
   },
   "CSX": {
      "Name": "Huanghua International Airport",
      "TotalSeats": 1778644.504,
      "Country Name": "China",
      "Latitude": 28.19659996,
      "Longitude": 113.2207031
   },
   "CTU": {
      "Name": "Shuangliu International",
      "TotalSeats": 4301611.748,
      "Country Name": "China",
      "Latitude": 30.57999992,
      "Longitude": 103.949997
   },
   "CZX": {
      "Name": "Benniu",
      "TotalSeats": 221017.664,
      "Country Name": "China",
      "Latitude": 31.70000076,
      "Longitude": 119.9666977
   },
   "DAT": {
      "Name": "Beijiazao",
      "TotalSeats": 7409.43,
      "Country Name": "China",
      "Latitude": 40.08300018,
      "Longitude": 113.3000031
   },
   "DDG": {
      "Name": "Langtou Airport",
      "TotalSeats": 1377.894,
      "Country Name": "China",
      "Latitude": 40.02550125,
      "Longitude": 124.2870026
   },
   "DLC": {
      "Name": "Zhoushuizi International",
      "TotalSeats": 1447711.629,
      "Country Name": "China",
      "Latitude": 38.91669846,
      "Longitude": 121.6500015
   },
   "DNH": {
      "Name": "Dunhuang",
      "TotalSeats": 779.94,
      "Country Name": "China",
      "Latitude": 40.20000076,
      "Longitude": 94.6832962
   },
   "DSN": {
      "Name": "Ejin Horo",
      "TotalSeats": 36873.83,
      "Country Name": "China",
      "Latitude": 39.84999847,
      "Longitude": 110.0333023
   },
   "DYG": {
      "Name": "Hehua",
      "TotalSeats": 152664.589,
      "Country Name": "China",
      "Latitude": 29.13330078,
      "Longitude": 110.4832993
   },
   "ENH": {
      "Name": "Xujiaping",
      "TotalSeats": 16881.368,
      "Country Name": "China",
      "Latitude": 30.2833004,
      "Longitude": 109.3167038
   },
   "ERL": {
      "Name": "Saiwusu International",
      "TotalSeats": 13336.974,
      "Country Name": "China",
      "Latitude": 43.4233017,
      "Longitude": 112.0911026
   },
   "FOC": {
      "Name": "Changle International",
      "TotalSeats": 1442256.382,
      "Country Name": "China",
      "Latitude": 26.10000038,
      "Longitude": 119.2833023
   },
   "FYJ": {
      "Name": "Fuyuan",
      "TotalSeats": 788.606,
      "Country Name": "China",
      "Latitude": 48.19720078,
      "Longitude": 134.3632965
   },
   "HAK": {
      "Name": "Meilan International",
      "TotalSeats": 881319.201,
      "Country Name": "China",
      "Latitude": 19.93860054,
      "Longitude": 110.4621964
   },
   "HET": {
      "Name": "Baita International",
      "TotalSeats": 117372.304,
      "Country Name": "China",
      "Latitude": 40.85480118,
      "Longitude": 111.8212967
   },
   "HFE": {
      "Name": "Xinqiao International",
      "TotalSeats": 493671.689,
      "Country Name": "China",
      "Latitude": 31.99279976,
      "Longitude": 116.9733963
   },
   "HGH": {
      "Name": "Xiaoshan International",
      "TotalSeats": 3281809.867,
      "Country Name": "China",
      "Latitude": 30.23600006,
      "Longitude": 120.4389038
   },
   "HHA": {
      "Name": "Huanghua",
      "TotalSeats": 20503.756,
      "Country Name": "China",
      "Latitude": 28.23329926,
      "Longitude": 113.1500015
   },
   "HIA": {
      "Name": "Lianshui",
      "TotalSeats": 41666.128,
      "Country Name": "China",
      "Latitude": 33.78749847,
      "Longitude": 119.1278
   },
   "HLD": {
      "Name": "Dongshan",
      "TotalSeats": 10043.894,
      "Country Name": "China",
      "Latitude": 49.2132988,
      "Longitude": 119.8239975
   },
   "HRB": {
      "Name": "Taiping International",
      "TotalSeats": 545420.708,
      "Country Name": "China",
      "Latitude": 45.62210083,
      "Longitude": 126.2482987
   },
   "INC": {
      "Name": "Hedong",
      "TotalSeats": 146763.043,
      "Country Name": "China",
      "Latitude": 38.36669922,
      "Longitude": 106.3666992
   },
   "JHG": {
      "Name": "Xishuangbanna Gasa International",
      "TotalSeats": 48161.295,
      "Country Name": "China",
      "Latitude": 22.01670075,
      "Longitude": 100.8000031
   },
   "JJN": {
      "Name": "Jinjiang",
      "TotalSeats": 680276.667,
      "Country Name": "China",
      "Latitude": 24.89999962,
      "Longitude": 118.5832977
   },
   "JMU": {
      "Name": "Dongjiao",
      "TotalSeats": 20798.4,
      "Country Name": "China",
      "Latitude": 46.83330154,
      "Longitude": 130.3500061
   },
   "JNZ": {
      "Name": "Jinzhouwan",
      "TotalSeats": 10737.174,
      "Country Name": "China",
      "Latitude": 41.11669922,
      "Longitude": 121.0167007
   },
   "KGT": {
      "Name": "Kangding Airport",
      "TotalSeats": 472.297,
      "Country Name": "China",
      "Latitude": 38.14279938,
      "Longitude": 101.7382965
   },
   "KHG": {
      "Name": "Kashi",
      "TotalSeats": 3275.748,
      "Country Name": "China",
      "Latitude": 39.54309845,
      "Longitude": 76.0196991
   },
   "KHN": {
      "Name": "Changbei International",
      "TotalSeats": 550096.015,
      "Country Name": "China",
      "Latitude": 28.68330002,
      "Longitude": 115.8833008
   },
   "KMG": {
      "Name": "Changshui International",
      "TotalSeats": 3272329.263,
      "Country Name": "China",
      "Latitude": 25.10390091,
      "Longitude": 102.9428024
   },
   "KWE": {
      "Name": "Longdongbao International",
      "TotalSeats": 454674.689,
      "Country Name": "China",
      "Latitude": 26.54059982,
      "Longitude": 106.8003006
   },
   "KWL": {
      "Name": "Liangjiang International",
      "TotalSeats": 255763.991,
      "Country Name": "China",
      "Latitude": 25.21590042,
      "Longitude": 110.0472031
   },
   "LHW": {
      "Name": "Zhongchuan",
      "TotalSeats": 281246.364,
      "Country Name": "China",
      "Latitude": 36.01670075,
      "Longitude": 103.75
   },
   "LJG": {
      "Name": "Sanyi Airport",
      "TotalSeats": 55380.073,
      "Country Name": "China",
      "Latitude": 27,
      "Longitude": 100
   },
   "LUM": {
      "Name": "Dehong Mangshi",
      "TotalSeats": 23861.831,
      "Country Name": "China",
      "Latitude": 24.4829998,
      "Longitude": 98.51699829
   },
   "LXA": {
      "Name": "Gonggar",
      "TotalSeats": 23255.211,
      "Country Name": "China",
      "Latitude": 29.66670036,
      "Longitude": 91.15000153
   },
   "LYA": {
      "Name": "Beijiao",
      "TotalSeats": 22878.24,
      "Country Name": "China",
      "Latitude": 34.68330002,
      "Longitude": 112.4666977
   },
   "LYG": {
      "Name": "Baitabu",
      "TotalSeats": 23866.164,
      "Country Name": "China",
      "Latitude": 34.54999924,
      "Longitude": 119.25
   },
   "LYI": {
      "Name": "Shubuling Airport",
      "TotalSeats": 34958.644,
      "Country Name": "China",
      "Latitude": 35.05270004,
      "Longitude": 118.4262009
   },
   "LZH": {
      "Name": "Bailian",
      "TotalSeats": 376.971,
      "Country Name": "China",
      "Latitude": 24.36669922,
      "Longitude": 109.5333023
   },
   "MDG": {
      "Name": "Hailang",
      "TotalSeats": 78830.269,
      "Country Name": "China",
      "Latitude": 44.59999847,
      "Longitude": 129.5
   },
   "MIG": {
      "Name": "Nanjiao",
      "TotalSeats": 2929.108,
      "Country Name": "China",
      "Latitude": 31.43110085,
      "Longitude": 104.7380981
   },
   "MXZ": {
      "Name": "Meixian",
      "TotalSeats": 20677.076,
      "Country Name": "China",
      "Latitude": 24.35000038,
      "Longitude": 116.1333008
   },
   "NDG": {
      "Name": "Sanjiazi",
      "TotalSeats": 3392.739,
      "Country Name": "China",
      "Latitude": 47.25529862,
      "Longitude": 123.9240036
   },
   "NGB": {
      "Name": "Lishe International",
      "TotalSeats": 787639.741,
      "Country Name": "China",
      "Latitude": 29.83329964,
      "Longitude": 121.5333023
   },
   "NKG": {
      "Name": "Lukou International",
      "TotalSeats": 2341080.903,
      "Country Name": "China",
      "Latitude": 31.99530029,
      "Longitude": 118.8116989
   },
   "NNG": {
      "Name": "Wuxu International",
      "TotalSeats": 909046.068,
      "Country Name": "China",
      "Latitude": 22.60960007,
      "Longitude": 108.1716995
   },
   "NTG": {
      "Name": "Xingdong",
      "TotalSeats": 154012.152,
      "Country Name": "China",
      "Latitude": 32.06669998,
      "Longitude": 120.9666977
   },
   "NZH": {
      "Name": "Xijiao Airport",
      "TotalSeats": 30166.346,
      "Country Name": "China",
      "Latitude": 49.56560135,
      "Longitude": 117.3450012
   },
   "PEK": {
      "Name": "Capital International",
      "TotalSeats": 18508383.5,
      "Country Name": "China",
      "Latitude": 40.06669998,
      "Longitude": 116.5999985
   },
   "PKX": {
      "Name": "Daxing International Airport",
      "TotalSeats": 74063.969,
      "Country Name": "China",
      "Latitude": 39.50859833,
      "Longitude": 116.4107971
   },
   "PVG": {
      "Name": "Pudong International",
      "TotalSeats": 24133917.4,
      "Country Name": "China",
      "Latitude": 31.14389992,
      "Longitude": 121.7913971
   },
   "SHA": {
      "Name": "Hongqiao International",
      "TotalSeats": 2030504.462,
      "Country Name": "China",
      "Latitude": 31.19809914,
      "Longitude": 121.3364029
   },
   "SHE": {
      "Name": "Taoxian International",
      "TotalSeats": 1164368.093,
      "Country Name": "China",
      "Latitude": 41.79999924,
      "Longitude": 123.449997
   },
   "SHP": {
      "Name": "Shanhaiguan",
      "TotalSeats": 753.942,
      "Country Name": "China",
      "Latitude": 45.01670075,
      "Longitude": 119.75
   },
   "SIA": {
      "Name": "Xiguan",
      "TotalSeats": 246.981,
      "Country Name": "China",
      "Latitude": 34.25,
      "Longitude": 108.8666992
   },
   "SJW": {
      "Name": "Zhengding International",
      "TotalSeats": 216394.353,
      "Country Name": "China",
      "Latitude": 38.04999924,
      "Longitude": 114.4666977
   },
   "SWA": {
      "Name": "Jieyang Chaoshan",
      "TotalSeats": 355817.294,
      "Country Name": "China",
      "Latitude": 23.36669922,
      "Longitude": 116.6667023
   },
   "SYX": {
      "Name": "Phoenix International",
      "TotalSeats": 689999.919,
      "Country Name": "China",
      "Latitude": 18.30349922,
      "Longitude": 109.4123993
   },
   "SZX": {
      "Name": "Bao'an International",
      "TotalSeats": 4040210.524,
      "Country Name": "China",
      "Latitude": 22.54999924,
      "Longitude": 113.9167023
   },
   "TAO": {
      "Name": "Liuting International",
      "TotalSeats": 2745605.45,
      "Country Name": "China",
      "Latitude": 36.26679993,
      "Longitude": 120.3830032
   },
   "TEN": {
      "Name": "Fenhuang Airport",
      "TotalSeats": 18163.936,
      "Country Name": "China",
      "Latitude": 27.63330078,
      "Longitude": 109.0500031
   },
   "TJJ": {
      "Name": "Bus Station",
      "TotalSeats": 21301.028,
      "Country Name": "China",
      "Latitude": 39.14609909,
      "Longitude": 117.2256012
   },
   "TNA": {
      "Name": "Yaoqiang International",
      "TotalSeats": 848626.716,
      "Country Name": "China",
      "Latitude": 36.75,
      "Longitude": 116.9666977
   },
   "TSN": {
      "Name": "Binhai International",
      "TotalSeats": 2085841.205,
      "Country Name": "China",
      "Latitude": 39.1189003,
      "Longitude": 117.3469009
   },
   "TXN": {
      "Name": "Tunxi International",
      "TotalSeats": 74076.968,
      "Country Name": "China",
      "Latitude": 29.73329926,
      "Longitude": 118.3000031
   },
   "TYN": {
      "Name": "Wusu International",
      "TotalSeats": 307816.32,
      "Country Name": "China",
      "Latitude": 37.82889938,
      "Longitude": 112.5550003
   },
   "URC": {
      "Name": "Diwopu International",
      "TotalSeats": 595458.192,
      "Country Name": "China",
      "Latitude": 43.9068985,
      "Longitude": 87.47409821
   },
   "UYN": {
      "Name": "Yuyang",
      "TotalSeats": 9198.959,
      "Country Name": "China",
      "Latitude": 38.33330154,
      "Longitude": 109.4832993
   },
   "WEF": {
      "Name": "Weifang Airport",
      "TotalSeats": 5095.608,
      "Country Name": "China",
      "Latitude": 36.75,
      "Longitude": 119.2166977
   },
   "WEH": {
      "Name": "Dashuibo",
      "TotalSeats": 378743.197,
      "Country Name": "China",
      "Latitude": 37.1867981,
      "Longitude": 122.2291031
   },
   "WNZ": {
      "Name": "Yongqiang International",
      "TotalSeats": 367910.697,
      "Country Name": "China",
      "Latitude": 27.95000076,
      "Longitude": 120.6333008
   },
   "WUH": {
      "Name": "Tianhe International",
      "TotalSeats": 1874425.469,
      "Country Name": "China",
      "Latitude": 30.5977993,
      "Longitude": 114.2427979
   },
   "WUS": {
      "Name": "Fujian Province Airport",
      "TotalSeats": 36041.894,
      "Country Name": "China",
      "Latitude": 27.70089912,
      "Longitude": 118.0002976
   },
   "WUT": {
      "Name": "Wutaishan",
      "TotalSeats": 8072.379,
      "Country Name": "China",
      "Latitude": 38.5992012,
      "Longitude": 112.9677963
   },
   "WUX": {
      "Name": "Sunan Shuofang",
      "TotalSeats": 683201.442,
      "Country Name": "China",
      "Latitude": 31.58329964,
      "Longitude": 120.3167038
   },
   "WXN": {
      "Name": "Wuqiao",
      "TotalSeats": 37593.108,
      "Country Name": "China",
      "Latitude": 30.89999962,
      "Longitude": 108.4666977
   },
   "XIC": {
      "Name": "Qingshan",
      "TotalSeats": 2929.108,
      "Country Name": "China",
      "Latitude": 27.9666996,
      "Longitude": 102.2166977
   },
   "XIY": {
      "Name": "Xianyang International",
      "TotalSeats": 2032926.609,
      "Country Name": "China",
      "Latitude": 34.36669922,
      "Longitude": 108.699997
   },
   "XMN": {
      "Name": "Gaoqi International",
      "TotalSeats": 2587901.582,
      "Country Name": "China",
      "Latitude": 24.4666996,
      "Longitude": 118.1166992
   },
   "XNN": {
      "Name": "Caojiabao",
      "TotalSeats": 64726.354,
      "Country Name": "China",
      "Latitude": 36.54999924,
      "Longitude": 101.75
   },
   "XUZ": {
      "Name": "Guanyin",
      "TotalSeats": 96747.224,
      "Country Name": "China",
      "Latitude": 34.26670075,
      "Longitude": 117.1832962
   },
   "YCU": {
      "Name": "Guangong",
      "TotalSeats": 29447.068,
      "Country Name": "China",
      "Latitude": 35.98300171,
      "Longitude": 111.0169983
   },
   "YEH": {
      "Name": "Yueyahu",
      "TotalSeats": 81690.049,
      "Country Name": "China",
      "Latitude": 38.58810043,
      "Longitude": 106.5385971
   },
   "YIH": {
      "Name": "Sanxia",
      "TotalSeats": 27107.248,
      "Country Name": "China",
      "Latitude": 30.70000076,
      "Longitude": 111.1832962
   },
   "YIW": {
      "Name": "Yiwu Airport",
      "TotalSeats": 98246.442,
      "Country Name": "China",
      "Latitude": 29.26670075,
      "Longitude": 120.0500031
   },
   "YNJ": {
      "Name": "Chaoyangchuan",
      "TotalSeats": 431883.109,
      "Country Name": "China",
      "Latitude": 42.65000153,
      "Longitude": 129.5
   },
   "YNT": {
      "Name": "Penglai International",
      "TotalSeats": 621157.215,
      "Country Name": "China",
      "Latitude": 37.54999924,
      "Longitude": 121.3332977
   },
   "YNZ": {
      "Name": "Nanyang Airport",
      "TotalSeats": 92600.543,
      "Country Name": "China",
      "Latitude": 33.42580032,
      "Longitude": 120.2031021
   },
   "YTY": {
      "Name": "Taizhou",
      "TotalSeats": 125765.325,
      "Country Name": "China",
      "Latitude": 32.56169891,
      "Longitude": 119.7202988
   },
   "ZHA": {
      "Name": "Zhanjiang",
      "TotalSeats": 78262.646,
      "Country Name": "China",
      "Latitude": 21.26670075,
      "Longitude": 110.4666977
   },
   "ZUH": {
      "Name": "Sanzao International",
      "TotalSeats": 684.614,
      "Country Name": "China",
      "Latitude": 22.00779915,
      "Longitude": 113.3781967
   },
   "ZYI": {
      "Name": "Xinzhou Airport",
      "TotalSeats": 30738.302,
      "Country Name": "China",
      "Latitude": 27.81110001,
      "Longitude": 107.2461014
   },
   "XCH": {
      "Name": "Christmas Island",
      "TotalSeats": 12548.368,
      "Country Name": "Christmas Island",
      "Latitude": -10.45030022,
      "Longitude": 105.6893997
   },
   "CCK": {
      "Name": "Cocos Islands",
      "TotalSeats": 8735.328,
      "Country Name": "Cocos (Keeling) Islands",
      "Latitude": -12.18859959,
      "Longitude": 96.83059692
   },
   "ACL": {
      "Name": "Aguaclara",
      "TotalSeats": 489.629,
      "Country Name": "Colombia",
      "Latitude": 4.75,
      "Longitude": -73
   },
   "ADZ": {
      "Name": "Gustavo Rojas Pinilla International",
      "TotalSeats": 44677.563,
      "Country Name": "Colombia",
      "Latitude": 12.58329964,
      "Longitude": -81.69999695
   },
   "AXM": {
      "Name": "El Eden International",
      "TotalSeats": 26249.314,
      "Country Name": "Colombia",
      "Latitude": 4.456399918,
      "Longitude": -75.76809692
   },
   "BAQ": {
      "Name": "Ernesto Cortissoz International",
      "TotalSeats": 203074.711,
      "Country Name": "Colombia",
      "Latitude": 10.89610004,
      "Longitude": -74.77890015
   },
   "BGA": {
      "Name": "Palonegro Intl Airport",
      "TotalSeats": 19706.484,
      "Country Name": "Colombia",
      "Latitude": 7.107200146,
      "Longitude": -73.12809753
   },
   "BOG": {
      "Name": "El Dorado Intl",
      "TotalSeats": 6868476.615,
      "Country Name": "Colombia",
      "Latitude": 4.706099987,
      "Longitude": -74.14219666
   },
   "CLO": {
      "Name": "Alfonso B Aragon International",
      "TotalSeats": 722510.418,
      "Country Name": "Colombia",
      "Latitude": 3.546099901,
      "Longitude": -76.38500214
   },
   "CRC": {
      "Name": "Santa Ana",
      "TotalSeats": 4679.64,
      "Country Name": "Colombia",
      "Latitude": 4.766699791,
      "Longitude": -75.9332962
   },
   "CTG": {
      "Name": "Rafael Nunez International",
      "TotalSeats": 655769.219,
      "Country Name": "Colombia",
      "Latitude": 10.4467001,
      "Longitude": -75.51059723
   },
   "CUC": {
      "Name": "Camilo Daza",
      "TotalSeats": 13830.936,
      "Country Name": "Colombia",
      "Latitude": 7.929999828,
      "Longitude": -72.50939941
   },
   "LET": {
      "Name": "Alfredo V. Cobb Intl",
      "TotalSeats": 4008.025,
      "Country Name": "Colombia",
      "Latitude": -4.196400166,
      "Longitude": -69.93939972
   },
   "MDE": {
      "Name": "Jose Marie Cordova",
      "TotalSeats": 1102102.883,
      "Country Name": "Colombia",
      "Latitude": 6.220799923,
      "Longitude": -75.5931015
   },
   "PEI": {
      "Name": "Matecana International",
      "TotalSeats": 91101.325,
      "Country Name": "Colombia",
      "Latitude": 4.814700127,
      "Longitude": -75.74500275
   },
   "PLC": {
      "Name": "Planeta Rica Airport",
      "TotalSeats": 4341.666,
      "Country Name": "Colombia",
      "Latitude": 8.416700363,
      "Longitude": -75.59999847
   },
   "RCH": {
      "Name": "Almirante Padilla",
      "TotalSeats": 2781.786,
      "Country Name": "Colombia",
      "Latitude": 11.5291996,
      "Longitude": -72.92440033
   },
   "SJR": {
      "Name": "San Juan De Uraba Airport",
      "TotalSeats": 7535.087,
      "Country Name": "Colombia",
      "Latitude": 8.766699791,
      "Longitude": -76.53330231
   },
   "SMR": {
      "Name": "Simon Bolivar Intl",
      "TotalSeats": 6239.52,
      "Country Name": "Colombia",
      "Latitude": 11.12220001,
      "Longitude": -74.22859955
   },
   "VVC": {
      "Name": "Vanguardia",
      "TotalSeats": 649.95,
      "Country Name": "Colombia",
      "Latitude": 4.07889986,
      "Longitude": -73.5667038
   },
   "AJN": {
      "Name": "Ouani Airport",
      "TotalSeats": 34196.036,
      "Country Name": "Comoros",
      "Latitude": -12.12639999,
      "Longitude": 44.42969894
   },
   "HAH": {
      "Name": "Prince Said Ibrahim International",
      "TotalSeats": 194387.046,
      "Country Name": "Comoros",
      "Latitude": -11.53190041,
      "Longitude": 43.26110077
   },
   "NWA": {
      "Name": "Bandar es Salam Airport",
      "TotalSeats": 3119.76,
      "Country Name": "Comoros",
      "Latitude": -12.2833004,
      "Longitude": 43.76670075
   },
   "YVA": {
      "Name": "Iconi",
      "TotalSeats": 5199.6,
      "Country Name": "Comoros",
      "Latitude": -11.70750046,
      "Longitude": 43.23419952
   },
   "BZV": {
      "Name": "Maya-Maya Airport",
      "TotalSeats": 209613.208,
      "Country Name": "Congo",
      "Latitude": -4.251900196,
      "Longitude": 15.25469971
   },
   "KMK": {
      "Name": "Makabana Airport",
      "TotalSeats": 47.663,
      "Country Name": "Congo",
      "Latitude": -3.483299971,
      "Longitude": 12.61670017
   },
   "PNR": {
      "Name": "Pointe Noire",
      "TotalSeats": 116124.4,
      "Country Name": "Congo",
      "Latitude": -4.810599804,
      "Longitude": 11.88580036
   },
   "RAR": {
      "Name": "Rarotonga Island",
      "TotalSeats": 195400.968,
      "Country Name": "Cook Islands",
      "Latitude": -21.20030022,
      "Longitude": -159.8000031
   },
   "LIO": {
      "Name": "Limon International",
      "TotalSeats": 14571.879,
      "Country Name": "Costa Rica",
      "Latitude": 9.955800057,
      "Longitude": -83.02110291
   },
   "LIR": {
      "Name": "D. Oduber Quiros Intl",
      "TotalSeats": 1031059.015,
      "Country Name": "Costa Rica",
      "Latitude": 10.58969975,
      "Longitude": -85.55000305
   },
   "NOB": {
      "Name": "Nosara",
      "TotalSeats": 658.616,
      "Country Name": "Costa Rica",
      "Latitude": 9.800000191,
      "Longitude": -85.53330231
   },
   "PBP": {
      "Name": "Islita, Costa",
      "TotalSeats": 1091.916,
      "Country Name": "Costa Rica",
      "Latitude": 9.856499672,
      "Longitude": -85.3707962
   },
   "PJM": {
      "Name": "Puerto Jimenez",
      "TotalSeats": 329.308,
      "Country Name": "Costa Rica",
      "Latitude": 8.534399986,
      "Longitude": -83.30139923
   },
   "SJO": {
      "Name": "Juan Santamaria Intl",
      "TotalSeats": 4075749.79,
      "Country Name": "Costa Rica",
      "Latitude": 9.993900299,
      "Longitude": -84.20890045
   },
   "SYQ": {
      "Name": "Tobias Bolanos International Airport",
      "TotalSeats": 1906.52,
      "Country Name": "Costa Rica",
      "Latitude": 9.957500458,
      "Longitude": -84.14029694
   },
   "TMU": {
      "Name": "Tambor",
      "TotalSeats": 576.289,
      "Country Name": "Costa Rica",
      "Latitude": 9.739199638,
      "Longitude": -85.01580048
   },
   "TNO": {
      "Name": "Tamarindo",
      "TotalSeats": 658.616,
      "Country Name": "Costa Rica",
      "Latitude": 10.93330002,
      "Longitude": -85.46669769
   },
   "XQP": {
      "Name": "La Managua ",
      "TotalSeats": 6339.179,
      "Country Name": "Costa Rica",
      "Latitude": 9.449999809,
      "Longitude": -84.15000153
   },
   "BWK": {
      "Name": "Bol",
      "TotalSeats": 6794.144,
      "Country Name": "Croatia",
      "Latitude": 43.28580093,
      "Longitude": 16.67970085
   },
   "DBV": {
      "Name": "Dubrovnik",
      "TotalSeats": 1474992.197,
      "Country Name": "Croatia",
      "Latitude": 42.56330109,
      "Longitude": 18.26530075
   },
   "LSZ": {
      "Name": "Mali Losinj",
      "TotalSeats": 4610.312,
      "Country Name": "Croatia",
      "Latitude": 44.56689835,
      "Longitude": 14.39389992
   },
   "OSI": {
      "Name": "Osijek",
      "TotalSeats": 22323.616,
      "Country Name": "Croatia",
      "Latitude": 45.54999924,
      "Longitude": 18.68330002
   },
   "PUY": {
      "Name": "Pula",
      "TotalSeats": 401218.468,
      "Country Name": "Croatia",
      "Latitude": 44.89170075,
      "Longitude": 13.9236002
   },
   "RJK": {
      "Name": "Rijeka Airport",
      "TotalSeats": 123117.862,
      "Country Name": "Croatia",
      "Latitude": 45.21670151,
      "Longitude": 14.56830025
   },
   "SPU": {
      "Name": "Split Airport",
      "TotalSeats": 1670245.843,
      "Country Name": "Croatia",
      "Latitude": 43.52500153,
      "Longitude": 16.29220009
   },
   "ZAD": {
      "Name": "Zadar",
      "TotalSeats": 430006.92,
      "Country Name": "Croatia",
      "Latitude": 44.09780121,
      "Longitude": 15.35669994
   },
   "ZAG": {
      "Name": "Franjo Tudman",
      "TotalSeats": 1941573.97,
      "Country Name": "Croatia",
      "Latitude": 45.74309921,
      "Longitude": 16.07029915
   },
   "ZGC": {
      "Name": "Bus Station",
      "TotalSeats": 96625.9,
      "Country Name": "Croatia",
      "Latitude": 45.80329895,
      "Longitude": 15.99330044
   },
   "CCC": {
      "Name": "Jardines del Rey",
      "TotalSeats": 293374.431,
      "Country Name": "Cuba",
      "Latitude": 22.51390076,
      "Longitude": -78.50830078
   },
   "CFG": {
      "Name": "Jaime Gonzalez",
      "TotalSeats": 2053.842,
      "Country Name": "Cuba",
      "Latitude": 22.14999962,
      "Longitude": -80.41419983
   },
   "CMW": {
      "Name": "Ignacio Agramonte International",
      "TotalSeats": 189863.394,
      "Country Name": "Cuba",
      "Latitude": 21.41860008,
      "Longitude": -77.84970093
   },
   "CYO": {
      "Name": "Vilo Acuna Intl",
      "TotalSeats": 31119.606,
      "Country Name": "Cuba",
      "Latitude": 21.61750031,
      "Longitude": -81.55079651
   },
   "GAO": {
      "Name": "Guantanamo Bay NS",
      "TotalSeats": 1819.86,
      "Country Name": "Cuba",
      "Latitude": 20.08110046,
      "Longitude": -75.15809631
   },
   "HAV": {
      "Name": "Jose Marti Intl",
      "TotalSeats": 3890397.049,
      "Country Name": "Cuba",
      "Latitude": 22.98940086,
      "Longitude": -82.40750122
   },
   "HOG": {
      "Name": "Frank Pais International",
      "TotalSeats": 381620.309,
      "Country Name": "Cuba",
      "Latitude": 20.7852993,
      "Longitude": -76.31500244
   },
   "MZO": {
      "Name": "Sierra Maestra",
      "TotalSeats": 7799.4,
      "Country Name": "Cuba",
      "Latitude": 20.32500076,
      "Longitude": -77.12889862
   },
   "NBW": {
      "Name": "Mariana Grajales",
      "TotalSeats": 4436.992,
      "Country Name": "Cuba",
      "Latitude": 19.90609932,
      "Longitude": -75.20749664
   },
   "SCU": {
      "Name": "Antonio Maceo Intl",
      "TotalSeats": 142027.074,
      "Country Name": "Cuba",
      "Latitude": 19.96920013,
      "Longitude": -75.83580017
   },
   "SNU": {
      "Name": "Abel Santamaria",
      "TotalSeats": 452378.199,
      "Country Name": "Cuba",
      "Latitude": 22.49189949,
      "Longitude": -79.94190216
   },
   "VRA": {
      "Name": "Juan G. Gomez Intl",
      "TotalSeats": 799122.191,
      "Country Name": "Cuba",
      "Latitude": 23.12579918,
      "Longitude": -81.29720306
   },
   "CUR": {
      "Name": "Hato International",
      "TotalSeats": 892701.992,
      "Country Name": "Curacao",
      "Latitude": 12.19419956,
      "Longitude": -68.96060181
   },
   "AKT": {
      "Name": "Akrotiri RAF Station",
      "TotalSeats": 805.938,
      "Country Name": "Cyprus",
      "Latitude": 34.59059906,
      "Longitude": 32.9878006
   },
   "ECN": {
      "Name": "Ercan",
      "TotalSeats": 2408606.375,
      "Country Name": "Cyprus",
      "Latitude": 35.15969849,
      "Longitude": 33.48830032
   },
   "LCA": {
      "Name": "Larnaca",
      "TotalSeats": 4185487.348,
      "Country Name": "Cyprus",
      "Latitude": 34.87779999,
      "Longitude": 33.63059998
   },
   "PFO": {
      "Name": "Paphos International",
      "TotalSeats": 1575881.769,
      "Country Name": "Cyprus",
      "Latitude": 34.7193985,
      "Longitude": 32.48469925
   },
   "BRQ": {
      "Name": "Turany",
      "TotalSeats": 249034.842,
      "Country Name": "Czech Republic",
      "Latitude": 49.15140152,
      "Longitude": 16.69440079
   },
   "KLV": {
      "Name": "Karlovy Vary International Airport",
      "TotalSeats": 33888.393,
      "Country Name": "Czech Republic",
      "Latitude": 50.2030983,
      "Longitude": 12.91499996
   },
   "OSR": {
      "Name": "Mosnov",
      "TotalSeats": 149336.845,
      "Country Name": "Czech Republic",
      "Latitude": 49.70000076,
      "Longitude": 18.11669922
   },
   "PED": {
      "Name": "Pardubice Airport",
      "TotalSeats": 36691.844,
      "Country Name": "Czech Republic",
      "Latitude": 50.01330185,
      "Longitude": 15.73890019
   },
   "PRG": {
      "Name": "Ruzyne",
      "TotalSeats": 10606226.41,
      "Country Name": "Czech Republic",
      "Latitude": 50.09999847,
      "Longitude": 14.26669979
   },
   "BNC": {
      "Name": "Mavivi",
      "TotalSeats": 987.924,
      "Country Name": "Democratic Republic of the Congo",
      "Latitude": 0.566699982,
      "Longitude": 29.4666996
   },
   "BUX": {
      "Name": "Bunia",
      "TotalSeats": 1975.848,
      "Country Name": "Democratic Republic of the Congo",
      "Latitude": 1.571699977,
      "Longitude": 30.21279907
   },
   "FBM": {
      "Name": "Luano",
      "TotalSeats": 129188.395,
      "Country Name": "Democratic Republic of the Congo",
      "Latitude": -11.59080029,
      "Longitude": 27.5291996
   },
   "FIH": {
      "Name": "N'Djili International",
      "TotalSeats": 472015.355,
      "Country Name": "Democratic Republic of the Congo",
      "Latitude": -4.384699822,
      "Longitude": 15.4449997
   },
   "FKI": {
      "Name": "Bangoka International Airport",
      "TotalSeats": 4237.674,
      "Country Name": "Democratic Republic of the Congo",
      "Latitude": 0.516700029,
      "Longitude": 25.15500069
   },
   "GOM": {
      "Name": "Goma International",
      "TotalSeats": 28350.819,
      "Country Name": "Democratic Republic of the Congo",
      "Latitude": -1.669999957,
      "Longitude": 29.23500061
   },
   "ION": {
      "Name": "Impfondo",
      "TotalSeats": 1733.2,
      "Country Name": "Democratic Republic of the Congo",
      "Latitude": 1.613299966,
      "Longitude": 18.06189919
   },
   "KEC": {
      "Name": "Kasenga Airport",
      "TotalSeats": 979.258,
      "Country Name": "Democratic Republic of the Congo",
      "Latitude": -10.33329964,
      "Longitude": 28.75
   },
   "MJM": {
      "Name": "Mbuji Mayi",
      "TotalSeats": 168.987,
      "Country Name": "Democratic Republic of the Congo",
      "Latitude": -6.12139988,
      "Longitude": 23.56970024
   },
   "RUE": {
      "Name": "Rughenda Airport",
      "TotalSeats": 987.924,
      "Country Name": "Democratic Republic of the Congo",
      "Latitude": 0.216600001,
      "Longitude": 29.45000076
   },
   "AAL": {
      "Name": "Aalborg",
      "TotalSeats": 338519.958,
      "Country Name": "Denmark",
      "Latitude": 57.0931015,
      "Longitude": 9.850000382
   },
   "AAR": {
      "Name": "Aarhus Airport",
      "TotalSeats": 245273.798,
      "Country Name": "Denmark",
      "Latitude": 56.31029892,
      "Longitude": 10.61810017
   },
   "BLL": {
      "Name": "Billund",
      "TotalSeats": 1912555.869,
      "Country Name": "Denmark",
      "Latitude": 55.74029923,
      "Longitude": 9.152799606
   },
   "CPH": {
      "Name": "Kastrup",
      "TotalSeats": 18211681.33,
      "Country Name": "Denmark",
      "Latitude": 55.60810089,
      "Longitude": 12.63329983
   },
   "EBJ": {
      "Name": "Esbjerg",
      "TotalSeats": 34417.019,
      "Country Name": "Denmark",
      "Latitude": 55.52640152,
      "Longitude": 8.552499771
   },
   "FAE": {
      "Name": "Vagar",
      "TotalSeats": 55921.698,
      "Country Name": "Denmark",
      "Latitude": 62.06669998,
      "Longitude": -7.266699791
   },
   "KRP": {
      "Name": "Midtjyllands",
      "TotalSeats": 606.62,
      "Country Name": "Denmark",
      "Latitude": 56.29999924,
      "Longitude": 9.116700172
   },
   "ODE": {
      "Name": "Beldringe",
      "TotalSeats": 1247.904,
      "Country Name": "Denmark",
      "Latitude": 55.47639847,
      "Longitude": 10.32859993
   },
   "RKE": {
      "Name": "Roskilde",
      "TotalSeats": 389.97,
      "Country Name": "Denmark",
      "Latitude": 55.58610153,
      "Longitude": 12.13329983
   },
   "RNN": {
      "Name": "Bornholm",
      "TotalSeats": 411.635,
      "Country Name": "Denmark",
      "Latitude": 55.06560135,
      "Longitude": 14.7578001
   },
   "SGD": {
      "Name": "Sonderborg Airport",
      "TotalSeats": 3241.084,
      "Country Name": "Denmark",
      "Latitude": 54.93030167,
      "Longitude": 9.794699669
   },
   "JIB": {
      "Name": "Ambouli International",
      "TotalSeats": 294106.708,
      "Country Name": "Djibouti",
      "Latitude": 11.54669952,
      "Longitude": 43.15779877
   },
   "DCF": {
      "Name": "Canefield",
      "TotalSeats": 623.952,
      "Country Name": "Dominica",
      "Latitude": 15.38609982,
      "Longitude": -61.40060043
   },
   "DOM": {
      "Name": "Melville Hall",
      "TotalSeats": 93909.109,
      "Country Name": "Dominica",
      "Latitude": 15.54310036,
      "Longitude": -61.30920029
   },
   "AZS": {
      "Name": "EL Catey Intl",
      "TotalSeats": 65852.934,
      "Country Name": "Dominican Republic",
      "Latitude": 19.27059937,
      "Longitude": -69.73690033
   },
   "EPS": {
      "Name": "El Portillo Airport",
      "TotalSeats": 1637.874,
      "Country Name": "Dominican Republic",
      "Latitude": 19.25,
      "Longitude": -69.5
   },
   "JBQ": {
      "Name": "Dr. Joaquin Balaguer Airport",
      "TotalSeats": 67646.796,
      "Country Name": "Dominican Republic",
      "Latitude": 18.57220078,
      "Longitude": -69.98560333
   },
   "LRM": {
      "Name": "Casa de Campo Intl",
      "TotalSeats": 211082.095,
      "Country Name": "Dominican Republic",
      "Latitude": 18.4102993,
      "Longitude": -68.9417038
   },
   "POP": {
      "Name": "Gregorio Luperon Intl",
      "TotalSeats": 451476.935,
      "Country Name": "Dominican Republic",
      "Latitude": 19.78109932,
      "Longitude": -70.66889954
   },
   "PUJ": {
      "Name": "Punta Cana International",
      "TotalSeats": 4292356.46,
      "Country Name": "Dominican Republic",
      "Latitude": 18.56669998,
      "Longitude": -68.38330078
   },
   "SDQ": {
      "Name": "Las Americas International",
      "TotalSeats": 2853111.513,
      "Country Name": "Dominican Republic",
      "Latitude": 18.42919922,
      "Longitude": -69.66919708
   },
   "STI": {
      "Name": "Cibao Intl",
      "TotalSeats": 1029343.147,
      "Country Name": "Dominican Republic",
      "Latitude": 19.46920013,
      "Longitude": -70.70030212
   },
   "DIL": {
      "Name": "Pres. Nicolau Lobato",
      "TotalSeats": 187575.57,
      "Country Name": "East Timor",
      "Latitude": -8.553299904,
      "Longitude": 125.5261002
   },
   "ESM": {
      "Name": "C.Concha Torres Intl",
      "TotalSeats": 15130.836,
      "Country Name": "Ecuador",
      "Latitude": 0.966700017,
      "Longitude": -79.625
   },
   "GYE": {
      "Name": "Jose Joaquin de Olmedo",
      "TotalSeats": 1442867.335,
      "Country Name": "Ecuador",
      "Latitude": -2.15440011,
      "Longitude": -79.87560272
   },
   "MEC": {
      "Name": "Eloy Alfaro Intl",
      "TotalSeats": 5520.242,
      "Country Name": "Ecuador",
      "Latitude": -0.9375,
      "Longitude": -80.72080231
   },
   "TUA": {
      "Name": "Luis A. Mantilla Intl",
      "TotalSeats": 23762.172,
      "Country Name": "Ecuador",
      "Latitude": 0.800000012,
      "Longitude": -77.71669769
   },
   "UIO": {
      "Name": "Mariscal Sucre Intl",
      "TotalSeats": 1499222.333,
      "Country Name": "Ecuador",
      "Latitude": -0.137799993,
      "Longitude": -78.48609924
   },
   "AAC": {
      "Name": "El Arish International",
      "TotalSeats": 1386.56,
      "Country Name": "Egypt",
      "Latitude": 31.07690048,
      "Longitude": 33.83409882
   },
   "ALY": {
      "Name": "El Nouzha",
      "TotalSeats": 90551.034,
      "Country Name": "Egypt",
      "Latitude": 31.18779945,
      "Longitude": 29.94809914
   },
   "ASW": {
      "Name": "Aswan International Airport",
      "TotalSeats": 2179.499,
      "Country Name": "Egypt",
      "Latitude": 23.96500015,
      "Longitude": 32.82170105
   },
   "ATZ": {
      "Name": "Asyut",
      "TotalSeats": 206549.777,
      "Country Name": "Egypt",
      "Latitude": 27.04999924,
      "Longitude": 31.01670075
   },
   "CAI": {
      "Name": "Cairo International Airport",
      "TotalSeats": 11260448.74,
      "Country Name": "Egypt",
      "Latitude": 30.13750076,
      "Longitude": 31.40690041
   },
   "DBB": {
      "Name": "Al Alamain International Airport",
      "TotalSeats": 805.938,
      "Country Name": "Egypt",
      "Latitude": 30.92440033,
      "Longitude": 28.79470062
   },
   "HBE": {
      "Name": "Borg el Arab Airport",
      "TotalSeats": 1479970.814,
      "Country Name": "Egypt",
      "Latitude": 30.91979981,
      "Longitude": 29.69630051
   },
   "HMB": {
      "Name": "International Airport",
      "TotalSeats": 342328.665,
      "Country Name": "Egypt",
      "Latitude": 26.34280014,
      "Longitude": 31.74279976
   },
   "HRG": {
      "Name": "Hurghada International Airport",
      "TotalSeats": 2278980.347,
      "Country Name": "Egypt",
      "Latitude": 27.18580055,
      "Longitude": 33.7989006
   },
   "LXR": {
      "Name": "Luxor International Airport",
      "TotalSeats": 129487.372,
      "Country Name": "Egypt",
      "Latitude": 25.67309952,
      "Longitude": 32.70750046
   },
   "MUH": {
      "Name": "Mersa Matruh",
      "TotalSeats": 17730.636,
      "Country Name": "Egypt",
      "Latitude": 31.33329964,
      "Longitude": 27.2166996
   },
   "RMF": {
      "Name": "Marsa Alam International Airport",
      "TotalSeats": 482280.232,
      "Country Name": "Egypt",
      "Latitude": 25.63330078,
      "Longitude": 34.56940079
   },
   "SSH": {
      "Name": "Sharm el-Sheikh Interrnational",
      "TotalSeats": 991611.383,
      "Country Name": "Egypt",
      "Latitude": 27.97500038,
      "Longitude": 34.38970184
   },
   "TCP": {
      "Name": "Taba International Airport",
      "TotalSeats": 14740.866,
      "Country Name": "Egypt",
      "Latitude": 29.54999924,
      "Longitude": 34.91669846
   },
   "ILS": {
      "Name": "Ilopango Airport",
      "TotalSeats": 3093.762,
      "Country Name": "El Salvador",
      "Latitude": 13.69219971,
      "Longitude": -89.1160965
   },
   "SAL": {
      "Name": "El Salvador Intl",
      "TotalSeats": 3216216.913,
      "Country Name": "El Salvador",
      "Latitude": 13.43999958,
      "Longitude": -89.05999756
   },
   "BSG": {
      "Name": "Bata",
      "TotalSeats": 2240.161,
      "Country Name": "Equatorial Guinea",
      "Latitude": 1.906700015,
      "Longitude": 9.802200317
   },
   "SSG": {
      "Name": "Santa Isabel International",
      "TotalSeats": 356085.94,
      "Country Name": "Equatorial Guinea",
      "Latitude": 3.752799988,
      "Longitude": 8.705599785
   },
   "ASM": {
      "Name": "Asmara International",
      "TotalSeats": 315277.746,
      "Country Name": "Eritrea",
      "Latitude": 15.29109955,
      "Longitude": 38.91030121
   },
   "MSW": {
      "Name": "Massawa International",
      "TotalSeats": 3917.032,
      "Country Name": "Eritrea",
      "Latitude": 15.6033001,
      "Longitude": 39.44110107
   },
   "CHE": {
      "Name": "City Hall Heliport",
      "TotalSeats": 11686.101,
      "Country Name": "Estonia",
      "Latitude": 59.44810104,
      "Longitude": 24.75329971
   },
   "EPU": {
      "Name": "Parnu Airport",
      "TotalSeats": 589.288,
      "Country Name": "Estonia",
      "Latitude": 58.41889954,
      "Longitude": 24.80610085
   },
   "TAY": {
      "Name": "Tartu",
      "TotalSeats": 21656.334,
      "Country Name": "Estonia",
      "Latitude": 58.36610031,
      "Longitude": 26.73609924
   },
   "TLL": {
      "Name": "Lennart Meri",
      "TotalSeats": 1888247.739,
      "Country Name": "Estonia",
      "Latitude": 59.41669846,
      "Longitude": 24.81669998
   },
   "URE": {
      "Name": "Kuressaare Airport",
      "TotalSeats": 1213.24,
      "Country Name": "Estonia",
      "Latitude": 58.21670151,
      "Longitude": 22.5
   },
   "ADD": {
      "Name": "Bole International",
      "TotalSeats": 8422784.377,
      "Country Name": "Ethiopia",
      "Latitude": 8.977800369,
      "Longitude": 38.79809952
   },
   "BJR": {
      "Name": "Bahar Dar",
      "TotalSeats": 1083.25,
      "Country Name": "Ethiopia",
      "Latitude": 11.59029961,
      "Longitude": 37.38470078
   },
   "DIR": {
      "Name": "Aba Tenna D Yilma International",
      "TotalSeats": 28597.8,
      "Country Name": "Ethiopia",
      "Latitude": 9.622200012,
      "Longitude": 41.85079956
   },
   "MQX": {
      "Name": "Alula Aba Nega",
      "TotalSeats": 1083.25,
      "Country Name": "Ethiopia",
      "Latitude": 13.46829987,
      "Longitude": 39.52640152
   },
   "MPN": {
      "Name": "Mount Pleasant",
      "TotalSeats": 48672.589,
      "Country Name": "Falkland Islands",
      "Latitude": -51.82220078,
      "Longitude": -58.44169998
   },
   "NAN": {
      "Name": "Nadi International",
      "TotalSeats": 1354378.809,
      "Country Name": "Fiji",
      "Latitude": -17.75309944,
      "Longitude": 177.4477997
   },
   "SUV": {
      "Name": "Nausori International",
      "TotalSeats": 29195.754,
      "Country Name": "Fiji",
      "Latitude": -18.04109955,
      "Longitude": 178.5661011
   },
   "ENF": {
      "Name": "Enontekio",
      "TotalSeats": 779.94,
      "Country Name": "Finland",
      "Latitude": 68.34999847,
      "Longitude": 23.41670036
   },
   "HEL": {
      "Name": "Helsinki-Vantaa",
      "TotalSeats": 11762383.47,
      "Country Name": "Finland",
      "Latitude": 60.32559967,
      "Longitude": 24.97170067
   },